{"type":"FeatureCollection", "features": [
{"type":"Feature","geometry":{"type":"Point","coordinates":[-122.44692719652693,47.24059736666284]},"properties":{"OBJECTID":133,"NAME":"McCarver Elementary","ADDRESS":"2111 S J ST","CITY":"TACOMA","ZIP":"98405","DISTRICT":"TACOMA","DIST_NO":"010","PHONE":"(253) 571-4900","WEBSITE":"https://www.tacomaschools.org/mccarver/Pages/default.aspx","PRS_ID":167,"GRADE":"K-5","Pollution_":0,"MEAN_SES":11.43339849,"MEAN_White":0.697646038,"MEAN_Black":0.089210396,"MEAN_Nativ":0.012469537,"MEAN_Asian":0.113401934,"MEAN_Pacif":0.011842675,"MEAN_Other":0.01482368,"MEAN_Multi":0.06060574}},
{"type":"Feature","geometry":{"type":"Point","coordinates":[-122.46127798096734,47.22567576338784]},"properties":{"OBJECTID":106,"NAME":"Jennie Reed Elementary","ADDRESS":"1802 S 36TH ST","CITY":"TACOMA","ZIP":"98418","DISTRICT":"TACOMA","DIST_NO":"010","PHONE":"(253) 571-6400","WEBSITE":"https://www.tacomaschools.org/reed/Pages/default.aspx","PRS_ID":171,"GRADE":"K-5","Pollution_":15,"MEAN_SES":10.22725162,"MEAN_White":0.575621048,"MEAN_Black":0.178361811,"MEAN_Nativ":0.021511974,"MEAN_Asian":0.101058919,"MEAN_Pacif":0.005463029,"MEAN_Other":0.033067175,"MEAN_Multi":0.084916044}},
{"type":"Feature","geometry":{"type":"Point","coordinates":[-122.42141541087717,47.22394372174567]},"properties":{"OBJECTID":131,"NAME":"Mary Lyon Elementary School","ADDRESS":"3702 E MCKINLEY AVE","CITY":"TACOMA","ZIP":"98404","DISTRICT":"TACOMA","DIST_NO":"010","PHONE":"(253) 571-4800","WEBSITE":"https://www.tacomaschools.org/lyon/Pages/default.aspx","PRS_ID":164,"GRADE":"K-5","Pollution_":3,"MEAN_SES":8.761176118,"MEAN_White":0.629151545,"MEAN_Black":0.074612448,"MEAN_Nativ":0.01558225,"MEAN_Asian":0.082941756,"MEAN_Pacif":0.027943173,"MEAN_Other":0.095496297,"MEAN_Multi":0.074272531}},
{"type":"Feature","geometry":{"type":"Point","coordinates":[-122.53550698239098,47.25434947051652]},"properties":{"OBJECTID":82,"NAME":"Geiger Montessori School","ADDRESS":"7401 S 8TH ST","CITY":"TACOMA","ZIP":"98465","DISTRICT":"TACOMA","DIST_NO":"010","PHONE":"(253) 571-6800","WEBSITE":"https://www.tacomaschools.org/geiger/Pages/default.aspx","PRS_ID":157,"GRADE":"K-5","Pollution_":1,"MEAN_SES":12.28384367,"MEAN_White":0.719918221,"MEAN_Black":0.081598201,"MEAN_Nativ":0.006924709,"MEAN_Asian":0.10914671,"MEAN_Pacif":0.001895028,"MEAN_Other":0.006640485,"MEAN_Multi":0.073876647}},
{"type":"Feature","geometry":{"type":"Point","coordinates":[-122.48647332076455,47.27154687945358]},"properties":{"OBJECTID":208,"NAME":"Washington Elementary School","ADDRESS":"2615 N ADAMS ST","CITY":"TACOMA","ZIP":"98407","DISTRICT":"TACOMA","DIST_NO":"010","PHONE":"(253) 571-5700","WEBSITE":"https://www.tacomaschools.org/washington/Pages/default.aspx","PRS_ID":182,"GRADE":"K-5","Pollution_":0,"MEAN_SES":14.81475319,"MEAN_White":0.862902716,"MEAN_Black":0.022223509,"MEAN_Nativ":0,"MEAN_Asian":0.023569716,"MEAN_Pacif":0.002356122,"MEAN_Other":0.021625052,"MEAN_Multi":0.067322886}},
{"type":"Feature","geometry":{"type":"Point","coordinates":[-122.42528053909545,47.30200696226748]},"properties":{"OBJECTID":18,"NAME":"Browns Point Elementary School","ADDRESS":"1526 51ST ST NE","CITY":"TACOMA","ZIP":"98422","DISTRICT":"TACOMA","DIST_NO":"010","PHONE":"(253) 571-7600","WEBSITE":"https://www.tacomaschools.org/bp/Pages/default.aspx","PRS_ID":148,"GRADE":"K-5","Pollution_":1,"MEAN_SES":14.73844086,"MEAN_White":0.753752898,"MEAN_Black":0.033459855,"MEAN_Nativ":0.007639834,"MEAN_Asian":0.127065083,"MEAN_Pacif":0.000297659,"MEAN_Other":0.013556673,"MEAN_Multi":0.064227998}},
{"type":"Feature","geometry":{"type":"Point","coordinates":[-122.42920280787516,47.17844160399123]},"properties":{"OBJECTID":119,"NAME":"Larchmont Elementary School","ADDRESS":"8601 E B ST","CITY":"TACOMA","ZIP":"98445","DISTRICT":"TACOMA","DIST_NO":"010","PHONE":"(253) 571-6200","WEBSITE":"https://www.tacomaschools.org/larchmont/Pages/default.aspx","PRS_ID":161,"GRADE":"K-5","Pollution_":0,"MEAN_SES":8.543810848,"MEAN_White":0.593586115,"MEAN_Black":0.081002407,"MEAN_Nativ":0.027856334,"MEAN_Asian":0.107063051,"MEAN_Pacif":0.02689574,"MEAN_Other":0.007537683,"MEAN_Multi":0.156058669}},
{"type":"Feature","geometry":{"type":"Point","coordinates":[-122.37400065293508,47.281834665112854]},"properties":{"OBJECTID":148,"NAME":"Northeast Tacoma Elementary School","ADDRESS":"5412 29TH ST NE","CITY":"TACOMA","ZIP":"98422","DISTRICT":"TACOMA","DIST_NO":"010","PHONE":"(253) 571-6933","WEBSITE":"https://www.tacomaschools.org/nt/Pages/default.aspx","PRS_ID":169,"GRADE":"K-5","Pollution_":1,"MEAN_SES":11.73368545,"MEAN_White":0.742777085,"MEAN_Black":0.070445349,"MEAN_Nativ":0.011477284,"MEAN_Asian":0.116399068,"MEAN_Pacif":0.011375023,"MEAN_Other":0.013093055,"MEAN_Multi":0.034433137}},
{"type":"Feature","geometry":{"type":"Point","coordinates":[-122.39984174908876,47.228014268488984]},"properties":{"OBJECTID":169,"NAME":"Roosevelt Elementary School","ADDRESS":"3550 E ROOSEVELT AVE","CITY":"TACOMA","ZIP":"98404","DISTRICT":"TACOMA","DIST_NO":"010","PHONE":"(253) 571-4400","WEBSITE":"https://www.tacomaschools.org/roosevelt/Pages/default.aspx","PRS_ID":173,"GRADE":"K-5","Pollution_":0,"MEAN_SES":7.923758183,"MEAN_White":0.374805637,"MEAN_Black":0.131559074,"MEAN_Nativ":0.131051563,"MEAN_Asian":0.113182586,"MEAN_Pacif":0.065190446,"MEAN_Other":0.09480061,"MEAN_Multi":0.089410084}},
{"type":"Feature","geometry":{"type":"Point","coordinates":[-122.49528118475739,47.26085227968406]},"properties":{"OBJECTID":105,"NAME":"Jefferson Elementary School","ADDRESS":"4302 N 13TH ST","CITY":"TACOMA","ZIP":"98406","DISTRICT":"TACOMA","DIST_NO":"010","PHONE":"(253) 571-4000","WEBSITE":"https://www.tacomaschools.org/jefferson/Pages/default.aspx","PRS_ID":160,"GRADE":"K-5","Pollution_":0,"MEAN_SES":13.2927166,"MEAN_White":0.868607778,"MEAN_Black":0.036119486,"MEAN_Nativ":0.005347788,"MEAN_Asian":0.020102251,"MEAN_Pacif":0.00000572,"MEAN_Other":0.007950803,"MEAN_Multi":0.061866173}},
{"type":"Feature","geometry":{"type":"Point","coordinates":[-122.41232109619868,47.22215067964067]},"properties":{"OBJECTID":12,"NAME":"Blix Elementary School","ADDRESS":"1302 E 38TH ST","CITY":"TACOMA","ZIP":"98404","DISTRICT":"TACOMA","DIST_NO":"010","PHONE":"(253) 571-7400","WEBSITE":"https://www.tacomaschools.org/blix/Pages/default.aspx","PRS_ID":323,"GRADE":"K-5","Pollution_":0,"MEAN_SES":8.928988626,"MEAN_White":0.518939999,"MEAN_Black":0.10539225,"MEAN_Nativ":0.025188897,"MEAN_Asian":0.095040348,"MEAN_Pacif":0.015975463,"MEAN_Other":0.168074263,"MEAN_Multi":0.07138878}},
{"type":"Feature","geometry":{"type":"Point","coordinates":[-122.50660983286342,47.26956288138926]},"properties":{"OBJECTID":50,"NAME":"Downing Elementary School","ADDRESS":"2502 N ORCHARD ST","CITY":"TACOMA","ZIP":"98406","DISTRICT":"TACOMA","DIST_NO":"010","PHONE":"(253) 571-7100","WEBSITE":"https://www.tacomaschools.org/downing/Pages/default.aspx","PRS_ID":152,"GRADE":"K-5","Pollution_":0,"MEAN_SES":12.24129455,"MEAN_White":0.811617124,"MEAN_Black":0.051076553,"MEAN_Nativ":0.014872078,"MEAN_Asian":0.021421797,"MEAN_Pacif":0.00111049,"MEAN_Other":0.018909881,"MEAN_Multi":0.080992076}},
{"type":"Feature","geometry":{"type":"Point","coordinates":[-122.51843676029036,47.28856622526175]},"properties":{"OBJECTID":161,"NAME":"Point Defiance Elementary","ADDRESS":"4330 N VISSCHER ST","CITY":"TACOMA","ZIP":"98407","DISTRICT":"TACOMA","DIST_NO":"010","PHONE":"(253) 571-6900","WEBSITE":"https://www.tacomaschools.org/pd/Pages/default.aspx","PRS_ID":170,"GRADE":"K-5","Pollution_":0,"MEAN_SES":12.48223921,"MEAN_White":0.898371616,"MEAN_Black":0.032706323,"MEAN_Nativ":0,"MEAN_Asian":0.035620901,"MEAN_Pacif":0.000901853,"MEAN_Other":0.005979124,"MEAN_Multi":0.026420183}},
{"type":"Feature","geometry":{"type":"Point","coordinates":[-122.52570437716699,47.26993306710685]},"properties":{"OBJECTID":177,"NAME":"Skyline Elementary School","ADDRESS":"2301 N MILDRED ST","CITY":"TACOMA","ZIP":"98406","DISTRICT":"TACOMA","DIST_NO":"010","PHONE":"(253) 571-7800","WEBSITE":"https://www.tacomaschools.org/skyline/Pages/default.aspx","PRS_ID":177,"GRADE":"K-5","Pollution_":0,"MEAN_SES":12.91654135,"MEAN_White":0.728399327,"MEAN_Black":0.09790726,"MEAN_Nativ":0.006320096,"MEAN_Asian":0.092625343,"MEAN_Pacif":0.0000949,"MEAN_Other":0.000772412,"MEAN_Multi":0.073880612}},
{"type":"Feature","geometry":{"type":"Point","coordinates":[-122.40021721827914,47.294685716001226]},"properties":{"OBJECTID":38,"NAME":"Crescent Heights Elementary School","ADDRESS":"4110 NASSAU AVE NE","CITY":"TACOMA","ZIP":"98422","DISTRICT":"TACOMA","DIST_NO":"010","PHONE":"(253) 571-5500","WEBSITE":"https://www.tacomaschools.org/ch/Pages/default.aspx","PRS_ID":282,"GRADE":"K-5","Pollution_":0,"MEAN_SES":12.24031098,"MEAN_White":0.744640426,"MEAN_Black":0.057541683,"MEAN_Nativ":0.005065611,"MEAN_Asian":0.133100787,"MEAN_Pacif":0.008538523,"MEAN_Other":0.00640317,"MEAN_Multi":0.044709799}},
{"type":"Feature","geometry":{"type":"Point","coordinates":[-122.5235091014954,47.253170458715]},"properties":{"OBJECTID":90,"NAME":"Grant Center for the Expressive Arts","ADDRESS":"6501 S 10TH ST","CITY":"TACOMA","ZIP":"98465","DISTRICT":"TACOMA","DIST_NO":"010","PHONE":"(253) 571-5400","WEBSITE":"https://www.tacomaschools.org/grant/Pages/default.aspx","PRS_ID":158,"GRADE":"K-5","Pollution_":1,"MEAN_SES":13.97254119,"MEAN_White":0.870449125,"MEAN_Black":0.037756825,"MEAN_Nativ":0.00280429,"MEAN_Asian":0.038513908,"MEAN_Pacif":0.0000103,"MEAN_Other":0.009792391,"MEAN_Multi":0.040673157}},
{"type":"Feature","geometry":{"type":"Point","coordinates":[-122.5018382750573,47.24939886791889]},"properties":{"OBJECTID":44,"NAME":"DeLong Elementary School","ADDRESS":"4901 S 14TH ST","CITY":"TACOMA","ZIP":"98405","DISTRICT":"TACOMA","DIST_NO":"010","PHONE":"(253) 571-5800","WEBSITE":"https://www.tacomaschools.org/delong/Pages/default.aspx","PRS_ID":151,"GRADE":"K-5","Pollution_":1,"MEAN_SES":10.49651621,"MEAN_White":0.711358215,"MEAN_Black":0.112661167,"MEAN_Nativ":0.010126454,"MEAN_Asian":0.073168507,"MEAN_Pacif":0.004957198,"MEAN_Other":0.014064053,"MEAN_Multi":0.073664406}},
{"type":"Feature","geometry":{"type":"Point","coordinates":[-122.47919425738517,47.248709914022434]},"properties":{"OBJECTID":76,"NAME":"Franklin Elementary School","ADDRESS":"1402 S LAWRENCE ST","CITY":"TACOMA","ZIP":"98405","DISTRICT":"TACOMA","DIST_NO":"010","PHONE":"(253) 571-1400","WEBSITE":"https://www.tacomaschools.org/franklin/Pages/default.aspx","PRS_ID":156,"GRADE":"K-5","Pollution_":0,"MEAN_SES":10.52674444,"MEAN_White":0.711096209,"MEAN_Black":0.126434215,"MEAN_Nativ":0.010280224,"MEAN_Asian":0.057373797,"MEAN_Pacif":0.005155122,"MEAN_Other":0.013751897,"MEAN_Multi":0.075908536}},
{"type":"Feature","geometry":{"type":"Point","coordinates":[-122.4599928682118,47.24433688522353]},"properties":{"OBJECTID":185,"NAME":"Stanley Elementary School","ADDRESS":"1712 S 17TH ST","CITY":"TACOMA","ZIP":"98405","DISTRICT":"TACOMA","DIST_NO":"010","PHONE":"(253) 571-4500","WEBSITE":"https://www.tacomaschools.org/stanley/Pages/default.aspx","PRS_ID":178,"GRADE":"K-5","Pollution_":0,"MEAN_SES":9.500163666,"MEAN_White":0.507886233,"MEAN_Black":0.24195637,"MEAN_Nativ":0.02168738,"MEAN_Asian":0.086632105,"MEAN_Pacif":0.001493057,"MEAN_Other":0.023586843,"MEAN_Multi":0.116758011}},
{"type":"Feature","geometry":{"type":"Point","coordinates":[-122.49755782286616,47.284009781839245]},"properties":{"OBJECTID":175,"NAME":"Sherman Elementary School","ADDRESS":"4415 N 38TH ST","CITY":"TACOMA","ZIP":"98407","DISTRICT":"TACOMA","DIST_NO":"010","PHONE":"(253) 571-5488","WEBSITE":"https://www.tacomaschools.org/sherman/Pages/default.aspx","PRS_ID":176,"GRADE":"K-5","Pollution_":0,"MEAN_SES":14.89647985,"MEAN_White":0.897182907,"MEAN_Black":0.016785328,"MEAN_Nativ":0,"MEAN_Asian":0.020817676,"MEAN_Pacif":0.002208682,"MEAN_Other":0.016213531,"MEAN_Multi":0.046791875}},
{"type":"Feature","geometry":{"type":"Point","coordinates":[-122.46584630531724,47.26743020150096]},"properties":{"OBJECTID":125,"NAME":"Lowell Elementary","ADDRESS":"810 MR DAHL DR","CITY":"TACOMA","ZIP":"98403","DISTRICT":"TACOMA","DIST_NO":"010","PHONE":"(253) 571-7200","WEBSITE":"https://www.tacomaschools.org/lowell/Pages/default.aspx","PRS_ID":163,"GRADE":"K-5","Pollution_":0,"MEAN_SES":15.25947068,"MEAN_White":0.812973471,"MEAN_Black":0.012404614,"MEAN_Nativ":0.025145259,"MEAN_Asian":0.049104167,"MEAN_Pacif":0.000105934,"MEAN_Other":0.00788227,"MEAN_Multi":0.092384286}},
{"type":"Feature","geometry":{"type":"Point","coordinates":[-122.45597761717052,47.174412943150024]},"properties":{"OBJECTID":183,"NAME":"Stafford Elementary","ADDRESS":"1615 S 92ND ST\r\n","CITY":"TACOMA","ZIP":"98444","DISTRICT":"TACOMA","DIST_NO":"010","PHONE":"(253) 571-4300","WEBSITE":"https://www.tacomaschools.org/stafford/Pages/default.aspx","PRS_ID":355,"GRADE":"K-5","Pollution_":0,"MEAN_SES":8.276754891,"MEAN_White":0.313171304,"MEAN_Black":0.100009576,"MEAN_Nativ":0.002178483,"MEAN_Asian":0.351599681,"MEAN_Pacif":0.037681944,"MEAN_Other":0.029624887,"MEAN_Multi":0.165734125}},
{"type":"Feature","geometry":{"type":"Point","coordinates":[-122.46047670784455,47.25488939623778]},"properties":{"OBJECTID":19,"NAME":"Bryant Montessori School","ADDRESS":"717 S GRANT AVE","CITY":"TACOMA","ZIP":"98405","DISTRICT":"TACOMA","DIST_NO":"010","PHONE":"(253) 571-2800","WEBSITE":"https://www.tacomaschools.org/bryant/Pages/default.aspx","PRS_ID":149,"GRADE":"K-8","Pollution_":0,"MEAN_SES":10.38712602,"MEAN_White":0.766430261,"MEAN_Black":0.071472903,"MEAN_Nativ":0.01048134,"MEAN_Asian":0.015216014,"MEAN_Pacif":0.030133369,"MEAN_Other":0.003151992,"MEAN_Multi":0.103114121}},
{"type":"Feature","geometry":{"type":"Point","coordinates":[-122.40083977352486,47.21584624376024]},"properties":{"OBJECTID":123,"NAME":"Lister Elementary","ADDRESS":"2106 E 44TH ST","CITY":"TACOMA","ZIP":"98404","DISTRICT":"TACOMA","DIST_NO":"010","PHONE":"(253) 571-2900","WEBSITE":"https://www.tacomaschools.org/lister/Pages/default.aspx","PRS_ID":162,"GRADE":"K-5","Pollution_":0,"MEAN_SES":8.013908206,"MEAN_White":0.317844438,"MEAN_Black":0.213478578,"MEAN_Nativ":0.007155621,"MEAN_Asian":0.244720579,"MEAN_Pacif":0.041413874,"MEAN_Other":0.039944568,"MEAN_Multi":0.135442343}},
{"type":"Feature","geometry":{"type":"Point","coordinates":[-122.4199648168744,47.20902761823358]},"properties":{"OBJECTID":174,"NAME":"Sheridan Elementary","ADDRESS":"5317 MCKINLEY AVE","CITY":"TACOMA","ZIP":"98404","DISTRICT":"TACOMA","DIST_NO":"010","PHONE":"(253) 571-5900","WEBSITE":"https://www.tacomaschools.org/sheridan/Pages/default.aspx","PRS_ID":175,"GRADE":"K-5","Pollution_":0,"MEAN_SES":8.22164758,"MEAN_White":0.439346937,"MEAN_Black":0.163673337,"MEAN_Nativ":0.032097525,"MEAN_Asian":0.133930329,"MEAN_Pacif":0.004602708,"MEAN_Other":0.150379915,"MEAN_Multi":0.07596925}},
{"type":"Feature","geometry":{"type":"Point","coordinates":[-122.44928833906152,47.22138096497333]},"properties":{"OBJECTID":213,"NAME":"Whitman Elementary School","ADDRESS":"1120 S 39TH ST","CITY":"TACOMA","ZIP":"98418","DISTRICT":"TACOMA","DIST_NO":"010","PHONE":"(253) 571-7272","WEBSITE":"https://www.tacomaschools.org/whitman/Pages/default.aspx","PRS_ID":183,"GRADE":"K-5","Pollution_":0,"MEAN_SES":10.71522666,"MEAN_White":0.601400787,"MEAN_Black":0.084473591,"MEAN_Nativ":0.005871182,"MEAN_Asian":0.106534594,"MEAN_Pacif":0.011464371,"MEAN_Other":0.072645201,"MEAN_Multi":0.117610274}},
{"type":"Feature","geometry":{"type":"Point","coordinates":[-122.44781938571194,47.20913581445626]},"properties":{"OBJECTID":127,"NAME":"Mann Elementary School","ADDRESS":"1002 S 52ND ST","CITY":"TACOMA","ZIP":"98408","DISTRICT":"TACOMA","DIST_NO":"010","PHONE":"(253) 571-6300","WEBSITE":"https://www.tacomaschools.org/mann/Pages/default.aspx","PRS_ID":166,"GRADE":"K-5","Pollution_":0,"MEAN_SES":9.564134888,"MEAN_White":0.558887164,"MEAN_Black":0.081558671,"MEAN_Nativ":0.009088251,"MEAN_Asian":0.08148015,"MEAN_Pacif":0.02116122,"MEAN_Other":0.072172664,"MEAN_Multi":0.175651881}},
{"type":"Feature","geometry":{"type":"Point","coordinates":[-122.51440843490649,47.228811030226595]},"properties":{"OBJECTID":214,"NAME":"Whittier Elementary","ADDRESS":"777 ELM TREE LN","CITY":"FIRCREST","ZIP":"98466","DISTRICT":"TACOMA","DIST_NO":"010","PHONE":"(253) 571-7500","WEBSITE":"https://www.tacomaschools.org/whittier/Pages/default.aspx","PRS_ID":184,"GRADE":"K-5","Pollution_":0,"MEAN_SES":11.4331844,"MEAN_White":0.713705736,"MEAN_Black":0.069059214,"MEAN_Nativ":0.012007051,"MEAN_Asian":0.082668461,"MEAN_Pacif":0.010636909,"MEAN_Other":0.007196627,"MEAN_Multi":0.104726002}},
{"type":"Feature","geometry":{"type":"Point","coordinates":[-122.49486542333706,47.19684904961813]},"properties":{"OBJECTID":126,"NAME":"Manitou Park Elementary","ADDRESS":"4330 S 66TH ST","CITY":"TACOMA","ZIP":"98409","DISTRICT":"TACOMA","DIST_NO":"010","PHONE":"(253) 571-5300","WEBSITE":"https://www.tacomaschools.org/mp/Pages/default.aspx","PRS_ID":165,"GRADE":"K-5","Pollution_":0,"MEAN_SES":10.31030375,"MEAN_White":0.509903303,"MEAN_Black":0.168176549,"MEAN_Nativ":0.009582334,"MEAN_Asian":0.168390242,"MEAN_Pacif":0.008373012,"MEAN_Other":0.025943332,"MEAN_Multi":0.109631228}},
{"type":"Feature","geometry":{"type":"Point","coordinates":[-122.47526495365615,47.20378017028859]},"properties":{"OBJECTID":56,"NAME":"Edison Elementary School","ADDRESS":"5830 S PINE ST","CITY":"TACOMA","ZIP":"98409","DISTRICT":"TACOMA","DIST_NO":"010","PHONE":"(253) 571-1700","WEBSITE":"https://www.tacomaschools.org/edison/Pages/default.aspx","PRS_ID":153,"GRADE":"K-5","Pollution_":0,"MEAN_SES":9.681103091,"MEAN_White":0.589822643,"MEAN_Black":0.143072842,"MEAN_Nativ":0.011549812,"MEAN_Asian":0.100501915,"MEAN_Pacif":0.004870599,"MEAN_Other":0.051728952,"MEAN_Multi":0.098453236}},
{"type":"Feature","geometry":{"type":"Point","coordinates":[-122.47474889310622,47.19108417849117]},"properties":{"OBJECTID":3,"NAME":"Arlington Elementary School","ADDRESS":"7202 S PINE ST","CITY":"TACOMA","ZIP":"98409","DISTRICT":"TACOMA","DIST_NO":"010","PHONE":"(253) 571-3200","WEBSITE":"https://www.tacomaschools.org/arlington/Pages/default.aspx","PRS_ID":145,"GRADE":"K-5","Pollution_":0,"MEAN_SES":8.671344165,"MEAN_White":0.551996491,"MEAN_Black":0.123959228,"MEAN_Nativ":0.015977236,"MEAN_Asian":0.133118043,"MEAN_Pacif":0.006642509,"MEAN_Other":0.051364099,"MEAN_Multi":0.116942394}},
{"type":"Feature","geometry":{"type":"Point","coordinates":[-122.42999558112938,47.2021151734673]},"properties":{"OBJECTID":65,"NAME":"Fawcett Elementary School","ADDRESS":"126 E 60TH ST","CITY":"TACOMA","ZIP":"98404","DISTRICT":"TACOMA","DIST_NO":"010","PHONE":"(253) 571-4700","WEBSITE":"https://www.tacomaschools.org/fawcett/Pages/default.aspx","PRS_ID":154,"GRADE":"K-5","Pollution_":0,"MEAN_SES":9.728830903,"MEAN_White":0.635224711,"MEAN_Black":0.074086712,"MEAN_Nativ":0.017648075,"MEAN_Asian":0.070200429,"MEAN_Pacif":0.039105492,"MEAN_Other":0.060859936,"MEAN_Multi":0.102874645}},
{"type":"Feature","geometry":{"type":"Point","coordinates":[-122.45123728261264,47.187341216041794]},"properties":{"OBJECTID":11,"NAME":"Birney Elementary School","ADDRESS":"1202 S 76TH ST","CITY":"TACOMA","ZIP":"98408","DISTRICT":"TACOMA","DIST_NO":"010","PHONE":"(253) 571-4600","WEBSITE":"https://www.tacomaschools.org/birney/Pages/default.aspx","PRS_ID":146,"GRADE":"K-5","Pollution_":0,"MEAN_SES":8.784589187,"MEAN_White":0.612953788,"MEAN_Black":0.084705611,"MEAN_Nativ":0.00518157,"MEAN_Asian":0.168652229,"MEAN_Pacif":0.003848422,"MEAN_Other":0.021846671,"MEAN_Multi":0.102811709}},
{"type":"Feature","geometry":{"type":"Point","coordinates":[-122.41428466966858,47.19717437221721]},"properties":{"OBJECTID":15,"NAME":"Boze Elementary School","ADDRESS":"1140 E 65TH ST","CITY":"TACOMA","ZIP":"98404","DISTRICT":"TACOMA","DIST_NO":"010","PHONE":"(253) 571-4688","WEBSITE":"https://www.tacomaschools.org/boze/Pages/default.aspx","PRS_ID":147,"GRADE":"K-5","Pollution_":0,"MEAN_SES":8.361243144,"MEAN_White":0.437632763,"MEAN_Black":0.14768271,"MEAN_Nativ":0.024533664,"MEAN_Asian":0.166862111,"MEAN_Pacif":0.041690156,"MEAN_Other":0.122815007,"MEAN_Multi":0.058783589}},
{"type":"Feature","geometry":{"type":"Point","coordinates":[-122.44261039976047,47.17980033636203]},"properties":{"OBJECTID":66,"NAME":"Fern Hill Elementary School","ADDRESS":"8442 S PARK AVE","CITY":"TACOMA","ZIP":"98444","DISTRICT":"TACOMA","DIST_NO":"010","PHONE":"(253) 571-3888","WEBSITE":"https://www.tacomaschools.org/fh/Pages/default.aspx","PRS_ID":155,"GRADE":"K-5","Pollution_":0,"MEAN_SES":8.394691287,"MEAN_White":0.589563805,"MEAN_Black":0.068088094,"MEAN_Nativ":0.007286257,"MEAN_Asian":0.192640372,"MEAN_Pacif":0.017343334,"MEAN_Other":0.02963364,"MEAN_Multi":0.095444497}}
]}