{"type":"FeatureCollection", "features": [
{"type":"Feature","geometry":{"type":"Point","coordinates":[-122.43535105768946,47.210894685519776]},"properties":{"OBJECTID":188,"NAME":"Stewart Middle School","ADDRESS":"5010 PACIFIC AVE","CITY":"TACOMA","ZIP":"98408","DISTRICT":"TACOMA","DIST_NO":"010","PHONE":"(253) 571-2200","WEBSITE":"https://www.tacomaschools.org/stewart/Pages/default.aspx","PRS_ID":198,"GRADE":"6-8","Pollution_":0,"MEAN_SES":9.267410714,"MEAN_White":0.625234811,"MEAN_Black":0.072225001,"MEAN_Nativ":0.016109743,"MEAN_Asian":0.08431647,"MEAN_Pacif":0.025060297,"MEAN_Other":0.082795947,"MEAN_Multi":0.094257731}},
{"type":"Feature","geometry":{"type":"Point","coordinates":[-122.46470213474342,47.25643871060207]},"properties":{"OBJECTID":104,"NAME":"Jason Lee Middle School","ADDRESS":"602 N SPRAGUE AVE","CITY":"TACOMA","ZIP":"98403","DISTRICT":"TACOMA","DIST_NO":"010","PHONE":"(253) 571-7700","WEBSITE":"https://www.tacomaschools.org/jl/Pages/default.aspx","PRS_ID":194,"GRADE":"6-8","Pollution_":0,"MEAN_SES":11.73051963,"MEAN_White":0.703540625,"MEAN_Black":0.094868321,"MEAN_Nativ":0.015103643,"MEAN_Asian":0.090844634,"MEAN_Pacif":0.010598838,"MEAN_Other":0.013095575,"MEAN_Multi":0.071948364}},
{"type":"Feature","geometry":{"type":"Point","coordinates":[-122.49130575435746,47.20029629839921]},"properties":{"OBJECTID":91,"NAME":"Gray Middle School","ADDRESS":"6229 S TYLER ST","CITY":"TACOMA","ZIP":"98409","DISTRICT":"TACOMA","DIST_NO":"010","PHONE":"(253) 571-5200","WEBSITE":"https://www.tacomaschools.org/gray/Pages/default.aspx","PRS_ID":413,"GRADE":"6-8","Pollution_":15,"MEAN_SES":9.585039427,"MEAN_White":0.546835557,"MEAN_Black":0.145104252,"MEAN_Nativ":0.012584012,"MEAN_Asian":0.136550641,"MEAN_Pacif":0.006776527,"MEAN_Other":0.042962468,"MEAN_Multi":0.109186541}},
{"type":"Feature","geometry":{"type":"Point","coordinates":[-122.49175709593126,47.27348012136509]},"properties":{"OBJECTID":132,"NAME":"Mason Middle School","ADDRESS":"3901 N 28TH ST","CITY":"TACOMA","ZIP":"98407","DISTRICT":"TACOMA","DIST_NO":"010","PHONE":"(253) 571-7000","WEBSITE":"https://www.tacomaschools.org/mason/Pages/default.aspx","PRS_ID":195,"GRADE":"6-8","Pollution_":0,"MEAN_SES":13.04733829,"MEAN_White":0.834095171,"MEAN_Black":0.048315871,"MEAN_Nativ":0.002868406,"MEAN_Asian":0.034680617,"MEAN_Pacif":0.003310979,"MEAN_Other":0.01621495,"MEAN_Multi":0.060514006}},
{"type":"Feature","geometry":{"type":"Point","coordinates":[-122.51341745192444,47.28074841014035]},"properties":{"OBJECTID":200,"NAME":"Truman Middle School","ADDRESS":"5801 N 35TH ST","CITY":"TACOMA","ZIP":"98407","DISTRICT":"TACOMA","DIST_NO":"010","PHONE":"(253) 571-5600","WEBSITE":"https://www.tacomaschools.org/truman/Pages/default.aspx","PRS_ID":199,"GRADE":"6-8","Pollution_":0,"MEAN_SES":12.08198139,"MEAN_White":0.778520601,"MEAN_Black":0.077849859,"MEAN_Nativ":0.007386151,"MEAN_Asian":0.069784499,"MEAN_Pacif":0.001293948,"MEAN_Other":0.006359205,"MEAN_Multi":0.058805737}},
{"type":"Feature","geometry":{"type":"Point","coordinates":[-122.40228031698867,47.29473093564093]},"properties":{"OBJECTID":136,"NAME":"Meeker Middle School","ADDRESS":"4402 NASSAU AVE NE","CITY":"TACOMA","ZIP":"98422","DISTRICT":"TACOMA","DIST_NO":"010","PHONE":"(253) 571-6500","WEBSITE":"https://www.tacomaschools.org/meeker/Pages/default.aspx","PRS_ID":197,"GRADE":"6-8","Pollution_":0,"MEAN_SES":12.70437283,"MEAN_White":0.746863373,"MEAN_Black":0.057097624,"MEAN_Nativ":0.008773821,"MEAN_Asian":0.123285014,"MEAN_Pacif":0.006240684,"MEAN_Other":0.011701713,"MEAN_Multi":0.04603777}},
{"type":"Feature","geometry":{"type":"Point","coordinates":[-122.4046026569022,47.20838515615237]},"properties":{"OBJECTID":70,"NAME":"First Creek Middle School","ADDRESS":"1801 E 56TH ST","CITY":"TACOMA","ZIP":"98404","DISTRICT":"TACOMA","DIST_NO":"010","PHONE":"(253) 571-2700","WEBSITE":"https://www.tacomaschools.org/fc/Pages/default.aspx","PRS_ID":196,"GRADE":"6-8","Pollution_":0,"MEAN_SES":8.292364017,"MEAN_White":0.421863231,"MEAN_Black":0.151084991,"MEAN_Nativ":0.049198593,"MEAN_Asian":0.141350656,"MEAN_Pacif":0.032757303,"MEAN_Other":0.122677491,"MEAN_Multi":0.081067734}},
{"type":"Feature","geometry":{"type":"Point","coordinates":[-122.46006570649187,47.21180415534177]},"properties":{"OBJECTID":83,"NAME":"Giaudrone Middle School","ADDRESS":"4902 S ALASKA ST","CITY":"TACOMA","ZIP":"98408","DISTRICT":"TACOMA","DIST_NO":"010","PHONE":"(253) 571-5811","WEBSITE":"https://www.tacomaschools.org/giaudrone/Pages/default.aspx","PRS_ID":327,"GRADE":"6-8","Pollution_":1,"MEAN_SES":10.08496494,"MEAN_White":0.578189282,"MEAN_Black":0.128208591,"MEAN_Nativ":0.013545443,"MEAN_Asian":0.094949197,"MEAN_Pacif":0.015976484,"MEAN_Other":0.054741219,"MEAN_Multi":0.114389784}},
{"type":"Feature","geometry":{"type":"Point","coordinates":[-122.51744736698043,47.24121641040019]},"properties":{"OBJECTID":205,"NAME":"Wainwright Intermediate School","ADDRESS":"130 ALAMEDA AVE","CITY":"FIRCREST","ZIP":"98466","DISTRICT":"TACOMA","DIST_NO":"010","PHONE":"(253) 571-2100","WEBSITE":"https://www.tacomaschools.org/whittier/Pages/default.aspx","PRS_ID":475,"GRADE":"6-8","Pollution_":0,"MEAN_SES":11.4331844,"MEAN_White":0.713705736,"MEAN_Black":0.069059214,"MEAN_Nativ":0.012007051,"MEAN_Asian":0.082668461,"MEAN_Pacif":0.010636909,"MEAN_Other":0.007196627,"MEAN_Multi":0.104726002}},
{"type":"Feature","geometry":{"type":"Point","coordinates":[-122.44629562916349,47.182834181725276]},"properties":{"OBJECTID":6,"NAME":"Baker Middle School","ADDRESS":"8001 S J ST","CITY":"TACOMA","ZIP":"98408","DISTRICT":"TACOMA","DIST_NO":"010","PHONE":"(253) 571-5000","WEBSITE":"https://www.tacomaschools.org/baker/Pages/default.aspx","PRS_ID":190,"GRADE":"6-8","Pollution_":0,"MEAN_SES":8.474678004,"MEAN_White":0.531596701,"MEAN_Black":0.084488937,"MEAN_Nativ":0.012132093,"MEAN_Asian":0.196010695,"MEAN_Pacif":0.02270383,"MEAN_Other":0.019883441,"MEAN_Multi":0.133184302}}
]}