{
"type": "FeatureCollection",
"name": "Schools_in_Pierce_County",
"crs": { "type": "name", "properties": { "name": "urn:ogc:def:crs:OGC:1.3:CRS84" } },
"features": [
{ "type": "Feature", "properties": { "OBJECTID": 1, "NAME": "Alice V. Hedden Elementary School", "ADDRESS": "11313 8TH ST E", "CITY": "EDGEWOOD", "ZIP": "98372", "DISTRICT": "FIFE", "DIST_NO": "417", "TYPE": "ELEM", "PHONE": "(253) 517-1500", "WEBSITE": "https://hedden.fifeschools.com/", "PRS_ID": null, "GRADE": "K-6", "X_COORD": 1198539.56739999, "Y_COORD": 704274.7564 }, "geometry": { "type": "Point", "coordinates": [ -122.279386795999983, 47.250888351000071 ] } },
{ "type": "Feature", "properties": { "OBJECTID": 2, "NAME": "All Saints Catholic School", "ADDRESS": "504 2ND ST SW", "CITY": "PUYALLUP", "ZIP": "98371", "DISTRICT": "NOT APPLICABLE", "DIST_NO": " ", "TYPE": "PRIVATE", "PHONE": "(253) 845-5025", "WEBSITE": "https://www.allsaintspuyallup.org/", "PRS_ID": null, "GRADE": "K-6", "X_COORD": 1193968.5257000001, "Y_COORD": 681321.9349 }, "geometry": { "type": "Point", "coordinates": [ -122.295683677999989, 47.187690952000025 ] } },
{ "type": "Feature", "properties": { "OBJECTID": 3, "NAME": "Anderson Island Elementary", "ADDRESS": "13005 CAMUS RD", "CITY": "ANDERSON ISLAND", "ZIP": "98303", "DISTRICT": "STEILACOOM", "DIST_NO": "001", "TYPE": "ELEM", "PHONE": "(253) 884-4901", "WEBSITE": "https://www.steilacoom.k12.wa.us/Domain/13", "PRS_ID": null, "GRADE": "K-6", "X_COORD": 1089991.0785000001, "Y_COORD": 675134.0097000001 }, "geometry": { "type": "Point", "coordinates": [ -122.713000207999983, 47.163487323000027 ] } },
{ "type": "Feature", "properties": { "OBJECTID": 4, "NAME": "Annie Wright School", "ADDRESS": "827 N TACOMA AVE", "CITY": "TACOMA", "ZIP": "98403", "DISTRICT": "NOT APPLICABLE", "DIST_NO": " ", "TYPE": "PRIVATE", "PHONE": "(253) 272-2216", "WEBSITE": "https://www.aw.org/page", "PRS_ID": null, "GRADE": "K-12", "X_COORD": 1154031.8389000001, "Y_COORD": 712176.26350001001 }, "geometry": { "type": "Point", "coordinates": [ -122.459334054999943, 47.269653764000054 ] } },
{ "type": "Feature", "properties": { "OBJECTID": 5, "NAME": "Arlington Elementary School", "ADDRESS": "7202 S PINE ST", "CITY": "TACOMA", "ZIP": "98409", "DISTRICT": "TACOMA", "DIST_NO": "010", "TYPE": "ELEM", "PHONE": "(253) 571-3200", "WEBSITE": "https://arlington.tacomaschools.org/", "PRS_ID": null, "GRADE": "K-5", "X_COORD": 1149492.2288, "Y_COORD": 683621.022 }, "geometry": { "type": "Point", "coordinates": [ -122.474734357999978, 47.191078401000027 ] } },
{ "type": "Feature", "properties": { "OBJECTID": 6, "NAME": "Artondale Elementary School", "ADDRESS": "6219 40TH ST NW", "CITY": "GIG HARBOR", "ZIP": "98335", "DISTRICT": "PENINSULA", "DIST_NO": "401", "TYPE": "ELEM", "PHONE": "(253) 530-1100", "WEBSITE": "https://aes.psd401.net/", "PRS_ID": null, "GRADE": "K-6", "X_COORD": 1113868.9510000099, "Y_COORD": 722293.17910000996 }, "geometry": { "type": "Point", "coordinates": [ -122.622145867999961, 47.294532758000059 ] } },
{ "type": "Feature", "properties": { "OBJECTID": 7, "NAME": "Aylen Junior High School", "ADDRESS": "101 15TH ST SW", "CITY": "PUYALLUP", "ZIP": "98371", "DISTRICT": "PUYALLUP", "DIST_NO": "003", "TYPE": "JRHIGH", "PHONE": "(253) 841-8723", "WEBSITE": "https://ajh.puyallup.k12.wa.us/", "PRS_ID": null, "GRADE": "7-9", "X_COORD": 1189664.314, "Y_COORD": 683138.9069 }, "geometry": { "type": "Point", "coordinates": [ -122.313157780999973, 47.192401339000071 ] } },
{ "type": "Feature", "properties": { "OBJECTID": 8, "NAME": "Baker Middle School", "ADDRESS": "8001 S J ST", "CITY": "TACOMA", "ZIP": "98408", "DISTRICT": "TACOMA", "DIST_NO": "010", "TYPE": "MID", "PHONE": "(253) 571-5000", "WEBSITE": "https://baker.tacomaschools.org/", "PRS_ID": null, "GRADE": "6-8", "X_COORD": 1156490.1007999899, "Y_COORD": 680437.06739999005 }, "geometry": { "type": "Point", "coordinates": [ -122.446281099999965, 47.182828402000041 ] } },
{ "type": "Feature", "properties": { "OBJECTID": 9, "NAME": "Ballou Junior High School", "ADDRESS": "9916 136TH ST E", "CITY": "PUYALLUP", "ZIP": "98373", "DISTRICT": "PUYALLUP", "DIST_NO": "003", "TYPE": "JRHIGH", "PHONE": "(253) 841-8725", "WEBSITE": "https://bjh.puyallup.k12.wa.us/", "PRS_ID": null, "GRADE": "7-9", "X_COORD": 1193120.859, "Y_COORD": 660696.0561 }, "geometry": { "type": "Point", "coordinates": [ -122.297202023999944, 47.131101663000038 ] } },
{ "type": "Feature", "properties": { "OBJECTID": 10, "NAME": "Bates Technical College - Central Campus", "ADDRESS": "2320 S 19TH ST", "CITY": "TACOMA", "ZIP": "98405", "DISTRICT": "NOT APPLICABLE", "DIST_NO": " ", "TYPE": "TECHNICAL", "PHONE": "(253) 680-7603", "WEBSITE": "https://batestech.edu/", "PRS_ID": null, "GRADE": "Higher Education", "X_COORD": 1151634.21600001, "Y_COORD": 702078.521 }, "geometry": { "type": "Point", "coordinates": [ -122.467973858999983, 47.241814189000081 ] } },
{ "type": "Feature", "properties": { "OBJECTID": 11, "NAME": "Bates Technical College - Downtown Campus", "ADDRESS": "1101 S YAKIMA AVE", "CITY": "TACOMA", "ZIP": "98405", "DISTRICT": "NOT APPLICABLE", "DIST_NO": " ", "TYPE": "TECHNICAL", "PHONE": "(253) 680-7000", "WEBSITE": "https://batestech.edu/", "PRS_ID": null, "GRADE": "Higher Education", "X_COORD": 1157081.4561000001, "Y_COORD": 705479.4874 }, "geometry": { "type": "Point", "coordinates": [ -122.44638853899994, 47.251506160000076 ] } },
{ "type": "Feature", "properties": { "OBJECTID": 12, "NAME": "Bates Technical College - South Campus", "ADDRESS": "2201 S 78TH ST", "CITY": "TACOMA", "ZIP": "98409", "DISTRICT": "NOT APPLICABLE", "DIST_NO": " ", "TYPE": "TECHNICAL", "PHONE": "(253) 680-7400", "WEBSITE": "https://batestech.edu/", "PRS_ID": null, "GRADE": "Higher Education", "X_COORD": 1151510.8788000001, "Y_COORD": 682400.9323 }, "geometry": { "type": "Point", "coordinates": [ -122.466495415999987, 47.187872557000048 ] } },
{ "type": "Feature", "properties": { "OBJECTID": 13, "NAME": "Beachwood Elementary School", "ADDRESS": "8890 CONCORD AVE", "CITY": "JBLM LEWIS N", "ZIP": "98433", "DISTRICT": "CLOVER PARK", "DIST_NO": "400", "TYPE": "ELEM", "PHONE": "(253) 583-5260", "WEBSITE": "https://beachwood.cloverpark.k12.wa.us/", "PRS_ID": null, "GRADE": "K-6", "X_COORD": 1120804.6517, "Y_COORD": 658437.1649 }, "geometry": { "type": "Point", "coordinates": [ -122.587396927999976, 47.120028199000046 ] } },
{ "type": "Feature", "properties": { "OBJECTID": 14, "NAME": "Bellarmine Preparatory School", "ADDRESS": "2300 S WASHINGTON ST", "CITY": "TACOMA", "ZIP": "98405", "DISTRICT": "NOT APPLICABLE", "DIST_NO": " ", "TYPE": "PRIVATE", "PHONE": "(253) 752-7701", "WEBSITE": "http://www.bellarmineprep.org", "PRS_ID": null, "GRADE": "9-12", "X_COORD": 1147017.6186, "Y_COORD": 700555.5756 }, "geometry": { "type": "Point", "coordinates": [ -122.486399351999978, 47.237322843000072 ] } },
{ "type": "Feature", "properties": { "OBJECTID": 15, "NAME": "Bethel Acceleraton Academy", "ADDRESS": "16218 PACIFIC AVE S", "CITY": "SPANAWAY", "ZIP": "98387", "DISTRICT": "BETHEL", "DIST_NO": "403", "TYPE": "OTHER", "PHONE": "(253) 267-1045", "WEBSITE": "https://www.accelerationacademy.org/bethel/", "PRS_ID": null, "GRADE": "9-12", "X_COORD": 1158566.3083, "Y_COORD": 653450.1278 }, "geometry": { "type": "Point", "coordinates": [ -122.435271789999945, 47.108999029000074 ] } },
{ "type": "Feature", "properties": { "OBJECTID": 16, "NAME": "Bethel Baptist Christian School", "ADDRESS": "524 176TH ST E", "CITY": "SPANAWAY", "ZIP": "98387", "DISTRICT": "NOT APPLICABLE", "DIST_NO": " ", "TYPE": "PRIVATE", "PHONE": "(253) 537-1749", "WEBSITE": "http://www.bbcsknights.org/", "PRS_ID": null, "GRADE": "K-6", "X_COORD": 1161195.1408, "Y_COORD": 648218.10430001002 }, "geometry": { "type": "Point", "coordinates": [ -122.424205197, 47.094834454000079 ] } },
{ "type": "Feature", "properties": { "OBJECTID": 17, "NAME": "Bethel Elementary Learning Academy", "ADDRESS": "16117 CANYON RD E", "CITY": "PUYALLUP", "ZIP": "98375", "DISTRICT": "BETHEL", "DIST_NO": "403", "TYPE": "OTHER", "PHONE": "(253) 800-4990", "WEBSITE": "https://www.bethelsd.org/bela", "PRS_ID": null, "GRADE": "K-5", "X_COORD": 1178283.6192000101, "Y_COORD": 653008.66140000999 }, "geometry": { "type": "Point", "coordinates": [ -122.356068629999982, 47.109088103000033 ] } },
{ "type": "Feature", "properties": { "OBJECTID": 18, "NAME": "Bethel High School", "ADDRESS": "22215 38TH AVE E", "CITY": "SPANAWAY", "ZIP": "98387", "DISTRICT": "BETHEL", "DIST_NO": "403", "TYPE": "HIGH", "PHONE": "(253) 683-7000", "WEBSITE": "https://www.bethelsd.org/bhs", "PRS_ID": null, "GRADE": "9-12", "X_COORD": 1172482.6307000101, "Y_COORD": 633657.6082 }, "geometry": { "type": "Point", "coordinates": [ -122.377508814999942, 47.05566940600005 ] } },
{ "type": "Feature", "properties": { "OBJECTID": 19, "NAME": "Bethel Middle School", "ADDRESS": "22001 38TH AVE E", "CITY": "SPANAWAY", "ZIP": "98387", "DISTRICT": "BETHEL", "DIST_NO": "403", "TYPE": "MID", "PHONE": "(253) 800-7200", "WEBSITE": "https://www.bethelsd.org/bms", "PRS_ID": null, "GRADE": "7-9", "X_COORD": 1172554.3374000001, "Y_COORD": 634716.264 }, "geometry": { "type": "Point", "coordinates": [ -122.37732229, 47.058575933000043 ] } },
{ "type": "Feature", "properties": { "OBJECTID": 20, "NAME": "Birney Elementary School", "ADDRESS": "7627 S SHERIDAN AVE ", "CITY": "TACOMA", "ZIP": "98408", "DISTRICT": "TACOMA", "DIST_NO": "010", "TYPE": "ELEM", "PHONE": "(253) 571-4600", "WEBSITE": "https://birney.tacomaschools.org/", "PRS_ID": null, "GRADE": "K-5", "X_COORD": 1155302.3119000001, "Y_COORD": 682110.7885 }, "geometry": { "type": "Point", "coordinates": [ -122.451222750999989, 47.187335436000069 ] } },
{ "type": "Feature", "properties": { "OBJECTID": 21, "NAME": "Blix Elementary School", "ADDRESS": "1302 E 38TH ST", "CITY": "TACOMA", "ZIP": "98404", "DISTRICT": "TACOMA", "DIST_NO": "010", "TYPE": "ELEM", "PHONE": "(253) 571-7400", "WEBSITE": "https://blix.tacomaschools.org/", "PRS_ID": null, "GRADE": "K-5", "X_COORD": 1165283.5475000001, "Y_COORD": 694566.3712000001 }, "geometry": { "type": "Point", "coordinates": [ -122.412306562999959, 47.222144894000053 ] } },
{ "type": "Feature", "properties": { "OBJECTID": 22, "NAME": "Bonney Lake Elementary School", "ADDRESS": "18715 80TH ST E", "CITY": "BONNEY LAKE", "ZIP": "98391", "DISTRICT": "SUMNER", "DIST_NO": "320", "TYPE": "ELEM", "PHONE": "(253) 891-4450", "WEBSITE": "https://www.sumnersd.org/ble", "PRS_ID": null, "GRADE": "K-6", "X_COORD": 1223259.8445000099, "Y_COORD": 679325.4965 }, "geometry": { "type": "Point", "coordinates": [ -122.177735456999983, 47.183986687000072 ] } },
{ "type": "Feature", "properties": { "OBJECTID": 23, "NAME": "Bonney Lake High School", "ADDRESS": "10920 199TH AVE CT E", "CITY": "BONNEY LAKE", "ZIP": "98391", "DISTRICT": "SUMNER", "DIST_NO": "320", "TYPE": "HIGH", "PHONE": "(253) 891-5700", "WEBSITE": "https://www.sumnersd.org/blhs", "PRS_ID": null, "GRADE": "9-12", "X_COORD": 1225530.713, "Y_COORD": 670240.67200001003 }, "geometry": { "type": "Point", "coordinates": [ -122.167832666999971, 47.159216097000069 ] } },
{ "type": "Feature", "properties": { "OBJECTID": 24, "NAME": "Boze Elementary School", "ADDRESS": "1140 E 65TH ST", "CITY": "TACOMA", "ZIP": "98404", "DISTRICT": "TACOMA", "DIST_NO": "010", "TYPE": "ELEM", "PHONE": "(253) 571-4688", "WEBSITE": "https://boze.tacomaschools.org/", "PRS_ID": null, "GRADE": "K-5", "X_COORD": 1164574.70640001, "Y_COORD": 685471.10619999003 }, "geometry": { "type": "Point", "coordinates": [ -122.414270141999964, 47.197168588000068 ] } },
{ "type": "Feature", "properties": { "OBJECTID": 25, "NAME": "Brookdale Elementary School", "ADDRESS": "11213 SHERIDAN AVE S", "CITY": "TACOMA", "ZIP": "98444", "DISTRICT": "FRANKLIN PIERCE", "DIST_NO": "402", "TYPE": "ELEM", "PHONE": "(253) 298-3100", "WEBSITE": "https://brookdale.fpschools.org/", "PRS_ID": null, "GRADE": "K-8", "X_COORD": 1154875.5306, "Y_COORD": 670380.1904 }, "geometry": { "type": "Point", "coordinates": [ -122.45177136999996, 47.155154085000049 ] } },
{ "type": "Feature", "properties": { "OBJECTID": 26, "NAME": "Brookdale Elementary School  (Opening Jan 2022)", "ADDRESS": "611 132ND ST S", "CITY": "TACOMA", "ZIP": "98444", "DISTRICT": "FRANKLIN PIERCE", "DIST_NO": "402", "TYPE": "ELEM", "PHONE": "(253) 298-3100", "WEBSITE": "https://brookdale.fpschools.org/", "PRS_ID": null, "GRADE": "K-6", "X_COORD": 1157321.8288999901, "Y_COORD": 664039.06119998998 }, "geometry": { "type": "Point", "coordinates": [ -122.441314523999949, 47.137939006000067 ] } },
{ "type": "Feature", "properties": { "OBJECTID": 27, "NAME": "Brouillet Elementary School", "ADDRESS": "17207 94TH AVE E", "CITY": "PUYALLUP", "ZIP": "98375", "DISTRICT": "PUYALLUP", "DIST_NO": "003", "TYPE": "ELEM", "PHONE": "(253) 841-8670", "WEBSITE": "https://bro.puyallup.k12.wa.us/", "PRS_ID": null, "GRADE": "K-6", "X_COORD": 1191415.3971, "Y_COORD": 649336.69050001004 }, "geometry": { "type": "Point", "coordinates": [ -122.303008954999939, 47.099858042000051 ] } },
{ "type": "Feature", "properties": { "OBJECTID": 28, "NAME": "Browns Point Elementary School", "ADDRESS": "1526 51ST ST NE", "CITY": "TACOMA", "ZIP": "98422", "DISTRICT": "TACOMA", "DIST_NO": "010", "TYPE": "ELEM", "PHONE": "(253) 571-7600", "WEBSITE": "https://bp.tacomaschools.org/", "PRS_ID": null, "GRADE": "K-5", "X_COORD": 1162775.1556, "Y_COORD": 723763.1332 }, "geometry": { "type": "Point", "coordinates": [ -122.425265987999978, 47.302001173000065 ] } },
{ "type": "Feature", "properties": { "OBJECTID": 29, "NAME": "Bryant Montessori PK-8", "ADDRESS": "717 S GRANT AVE", "CITY": "TACOMA", "ZIP": "98405", "DISTRICT": "TACOMA", "DIST_NO": "010", "TYPE": "ELEM", "PHONE": "(253) 571-2800", "WEBSITE": "https://bryant.tacomaschools.org/", "PRS_ID": null, "GRADE": "PK-8", "X_COORD": 1153617.9689, "Y_COORD": 706797.56 }, "geometry": { "type": "Point", "coordinates": [ -122.460462160999953, 47.25488361400005 ] } },
{ "type": "Feature", "properties": { "OBJECTID": 30, "NAME": "Camas Prairie Elementary School", "ADDRESS": "320 176TH ST E", "CITY": "SPANAWAY", "ZIP": "98387", "DISTRICT": "BETHEL", "DIST_NO": "403", "TYPE": "ELEM", "PHONE": "(253) 800-7400", "WEBSITE": "https://www.bethelsd.org/cpes", "PRS_ID": null, "GRADE": "K-6", "X_COORD": 1160398.449, "Y_COORD": 648760.0702 }, "geometry": { "type": "Point", "coordinates": [ -122.427456025999959, 47.096266651000064 ] } },
{ "type": "Feature", "properties": { "OBJECTID": 31, "NAME": "Carson Elementary School", "ADDRESS": "8615 184TH ST E", "CITY": "PUYALLUP", "ZIP": "98375", "DISTRICT": "PUYALLUP", "DIST_NO": "003", "TYPE": "ELEM", "PHONE": "(253) 840-8808", "WEBSITE": "https://car.puyallup.k12.wa.us/", "PRS_ID": null, "GRADE": "K-6", "X_COORD": 1188835.8994, "Y_COORD": 645838.8133 }, "geometry": { "type": "Point", "coordinates": [ -122.313040741999941, 47.090107939000063 ] } },
{ "type": "Feature", "properties": { "OBJECTID": 32, "NAME": "Carter Lake Elementary School", "ADDRESS": "3420 LINCOLN BLVD SW", "CITY": "JBLM MCCHORD FIELD", "ZIP": "98433", "DISTRICT": "CLOVER PARK", "DIST_NO": "400", "TYPE": "ELEM", "PHONE": "(253) 583-5210", "WEBSITE": "https://carterlake.cloverpark.k12.wa.us/", "PRS_ID": null, "GRADE": "K-6", "X_COORD": 1137180.551, "Y_COORD": 660998.3223 }, "geometry": { "type": "Point", "coordinates": [ -122.521904260999975, 47.12821740000004 ] } },
{ "type": "Feature", "properties": { "OBJECTID": 33, "NAME": "Cascade Christian Jr High and High School", "ADDRESS": "811 21ST ST SE", "CITY": "PUYALLUP", "ZIP": "98372", "DISTRICT": "NOT APPLICABLE", "DIST_NO": " ", "TYPE": "PRIVATE", "PHONE": "(253) 445-9706", "WEBSITE": "https://www.cascadechristian.org/", "PRS_ID": null, "GRADE": "6-12", "X_COORD": 1201837.9158000101, "Y_COORD": 679885.16329999 }, "geometry": { "type": "Point", "coordinates": [ -122.263913205, 47.184239520000062 ] } },
{ "type": "Feature", "properties": { "OBJECTID": 34, "NAME": "Cascade Christian School - Frederickson Elementary", "ADDRESS": "3425 176TH ST E", "CITY": "TACOMA", "ZIP": "98446", "DISTRICT": "NOT APPLICABLE", "DIST_NO": " ", "TYPE": "PRIVATE", "PHONE": "(253) 537-9339", "WEBSITE": "http://www.cascadechristian.org/schools/FredericksonElementary.cfm", "PRS_ID": null, "GRADE": "K-6", "X_COORD": 1171393.1297000099, "Y_COORD": 649042.84550000995 }, "geometry": { "type": "Point", "coordinates": [ -122.383352275, 47.09776988200008 ] } },
{ "type": "Feature", "properties": { "OBJECTID": 35, "NAME": "Cascade Christian School - McAlder Campus", "ADDRESS": "15502 96TH ST E", "CITY": "PUYALLUP", "ZIP": "98372", "DISTRICT": "NOT APPLICABLE", "DIST_NO": " ", "TYPE": "PRIVATE", "PHONE": "(253) 256-4382", "WEBSITE": "https://www.cascadechristian.org/schools/mcalder_campus.cfm", "PRS_ID": null, "GRADE": "K-6", "X_COORD": 1212034.9727, "Y_COORD": 674054.2291 }, "geometry": { "type": "Point", "coordinates": [ -122.222402995999971, 47.168874355000071 ] } },
{ "type": "Feature", "properties": { "OBJECTID": 36, "NAME": "Cascade Christian School - Puyallup Elementary", "ADDRESS": "601 9TH AVE SE", "CITY": "PUYALLUP", "ZIP": "98372", "DISTRICT": "NOT APPLICABLE", "DIST_NO": " ", "TYPE": "PRIVATE", "PHONE": "(253) 841-2091", "WEBSITE": "http://www.cascadechristian.org/schools/PuyallupElementary.cfm", "PRS_ID": null, "GRADE": "K-6", "X_COORD": 1196041.7202000001, "Y_COORD": 680308.61130001 }, "geometry": { "type": "Point", "coordinates": [ -122.287255492999975, 47.185042502000044 ] } },
{ "type": "Feature", "properties": { "OBJECTID": 37, "NAME": "Cedarcrest Middle School", "ADDRESS": "19120 13TH AVE CT E", "CITY": "SPANAWAY", "ZIP": "98387", "DISTRICT": "BETHEL", "DIST_NO": "403", "TYPE": "MID", "PHONE": "(253) 800-7500", "WEBSITE": "https://www.bethelsd.org/cms", "PRS_ID": null, "GRADE": "7-9", "X_COORD": 1163475.42200001, "Y_COORD": 644343.3917 }, "geometry": { "type": "Point", "coordinates": [ -122.41467526699995, 47.084365977000061 ] } },
{ "type": "Feature", "properties": { "OBJECTID": 38, "NAME": "Centennial Elementary School", "ADDRESS": "24323 MATHIAS RD E", "CITY": "GRAHAM", "ZIP": "98338", "DISTRICT": "BETHEL", "DIST_NO": "403", "TYPE": "ELEM", "PHONE": "(253) 800-7700", "WEBSITE": "https://www.bethelsd.org/ces", "PRS_ID": null, "GRADE": "K-6", "X_COORD": 1177683.2213000101, "Y_COORD": 626185.8316 }, "geometry": { "type": "Point", "coordinates": [ -122.355944769999951, 47.03552604600003 ] } },
{ "type": "Feature", "properties": { "OBJECTID": 39, "NAME": "Central Avenue Elementary School", "ADDRESS": "4608 128TH ST E", "CITY": "TACOMA", "ZIP": "98446", "DISTRICT": "FRANKLIN PIERCE", "DIST_NO": "402", "TYPE": "ELEM", "PHONE": "(253) 298-3200", "WEBSITE": "https://centralavenue.fpschools.org/", "PRS_ID": null, "GRADE": "K-6", "X_COORD": 1175934.8219000001, "Y_COORD": 664008.9365 }, "geometry": { "type": "Point", "coordinates": [ -122.366543907, 47.139088140000069 ] } },
{ "type": "Feature", "properties": { "OBJECTID": 40, "NAME": "Challenger High School", "ADDRESS": "18020 B ST E", "CITY": "SPANAWAY", "ZIP": "98387", "DISTRICT": "BETHEL", "DIST_NO": "403", "TYPE": "HIGH", "PHONE": "(253) 800-6800", "WEBSITE": "https://www.bethelsd.org/chs", "PRS_ID": null, "GRADE": "9-12", "X_COORD": 1159603.4025000001, "Y_COORD": 647384.4963 }, "geometry": { "type": "Point", "coordinates": [ -122.430512008, 47.092442909000056 ] } },
{ "type": "Feature", "properties": { "OBJECTID": 41, "NAME": "Chambers Primary School", "ADDRESS": "9101 56TH ST W", "CITY": "UNIVERSITY PLACE", "ZIP": "98467", "DISTRICT": "UNIVERSITY PLACE", "DIST_NO": "083", "TYPE": "PRIM", "PHONE": "(253) 566-5650", "WEBSITE": "https://cp.upsd83.org/", "PRS_ID": null, "GRADE": "K-4", "X_COORD": 1129099.46520001, "Y_COORD": 690248.855 }, "geometry": { "type": "Point", "coordinates": [ -122.557422668999948, 47.207815155000048 ] } },
{ "type": "Feature", "properties": { "OBJECTID": 42, "NAME": "Charles Wright Academy", "ADDRESS": "7723 CHAMBERS CREEK RD W", "CITY": "TACOMA", "ZIP": "98467", "DISTRICT": "NOT APPLICABLE", "DIST_NO": " ", "TYPE": "PRIVATE", "PHONE": "(253) 620-8300", "WEBSITE": "https://www.charleswright.org/", "PRS_ID": null, "GRADE": "K-12", "X_COORD": 1132303.4687000101, "Y_COORD": 687627.4421 }, "geometry": { "type": "Point", "coordinates": [ -122.54426297599997, 47.200858812000035 ] } },
{ "type": "Feature", "properties": { "OBJECTID": 43, "NAME": "Cherrydale Primary School", "ADDRESS": "1201 GALLOWAY ST", "CITY": "STEILACOOM", "ZIP": "98388", "DISTRICT": "STEILACOOM", "DIST_NO": "001", "TYPE": "ELEM", "PHONE": "(253) 983-2500", "WEBSITE": "https://www.steilacoom.k12.wa.us/Domain/11", "PRS_ID": null, "GRADE": "K-6", "X_COORD": 1121077.5131000001, "Y_COORD": 674905.8285 }, "geometry": { "type": "Point", "coordinates": [ -122.588052248999986, 47.165185425000061 ] } },
{ "type": "Feature", "properties": { "OBJECTID": 44, "NAME": "Chief Leschi Schools", "ADDRESS": "5625 52ND ST E", "CITY": "PUYALLUP", "ZIP": "98371", "DISTRICT": "NOT APPLICABLE", "DIST_NO": " ", "TYPE": "PRIVATE", "PHONE": "(253) 445-6000", "WEBSITE": "https://www.leschischools.org/", "PRS_ID": null, "GRADE": "K-6", "X_COORD": 1178841.8563000001, "Y_COORD": 690552.5402 }, "geometry": { "type": "Point", "coordinates": [ -122.357377475999954, 47.212031533000072 ] } },
{ "type": "Feature", "properties": { "OBJECTID": 45, "NAME": "Chloe Clark Elementary", "ADDRESS": "1700 PALISADE BLVD", "CITY": "DUPONT", "ZIP": "98327", "DISTRICT": "STEILACOOM", "DIST_NO": "001", "TYPE": "ELEM", "PHONE": "(253) 583-7100", "WEBSITE": "https://www.steilacoom.k12.wa.us/Domain/10", "PRS_ID": null, "GRADE": "K-6", "X_COORD": 1107821.71259999, "Y_COORD": 650663.10510001006 }, "geometry": { "type": "Point", "coordinates": [ -122.638680449999981, 47.097767451000038 ] } },
{ "type": "Feature", "properties": { "OBJECTID": 46, "NAME": "Christensen Elementary School", "ADDRESS": "10232 BARNES LN S", "CITY": "TACOMA", "ZIP": "98444", "DISTRICT": "FRANKLIN PIERCE", "DIST_NO": "402", "TYPE": "ELEM", "PHONE": "(253) 298-3300", "WEBSITE": "http://christensen.fpschools.org/", "PRS_ID": null, "GRADE": "K-6", "X_COORD": 1156239.1994999901, "Y_COORD": 673487.4532 }, "geometry": { "type": "Point", "coordinates": [ -122.446600131999958, 47.163763209000081 ] } },
{ "type": "Feature", "properties": { "OBJECTID": 47, "NAME": "City University", "ADDRESS": "1145 BROADWAY PLAZA SUITE 600", "CITY": "TACOMA", "ZIP": "98402", "DISTRICT": "NOT APPLICABLE", "DIST_NO": " ", "TYPE": "UNIVERSITY", "PHONE": "(253) 896-3210", "WEBSITE": "https://www.cityu.edu/about-cityu/locations-overview/", "PRS_ID": null, "GRADE": "Higher Education", "X_COORD": 1158823.33319999, "Y_COORD": 705493.15099998994 }, "geometry": { "type": "Point", "coordinates": [ -122.439378192999982, 47.251661231000071 ] } },
{ "type": "Feature", "properties": { "OBJECTID": 48, "NAME": "Clover Creek Elementary School", "ADDRESS": "16715 36TH AVE E", "CITY": "TACOMA", "ZIP": "98446", "DISTRICT": "BETHEL", "DIST_NO": "403", "TYPE": "ELEM", "PHONE": "(253) 800-7800", "WEBSITE": "https://www.bethelsd.org/cces", "PRS_ID": null, "GRADE": "PRE-6", "X_COORD": 1172270.5748000001, "Y_COORD": 650916.66509998997 }, "geometry": { "type": "Point", "coordinates": [ -122.380009557, 47.102963458000033 ] } },
{ "type": "Feature", "properties": { "OBJECTID": 49, "NAME": "Clover Park High School", "ADDRESS": "11023 GRAVELLY LAKE DR SW", "CITY": "LAKEWOOD", "ZIP": "98499", "DISTRICT": "CLOVER PARK", "DIST_NO": "400", "TYPE": "HIGH", "PHONE": "(253) 583-5500", "WEBSITE": "https://cphs.cloverpark.k12.wa.us/", "PRS_ID": null, "GRADE": "9-12", "X_COORD": 1138440.2277, "Y_COORD": 671810.2809 }, "geometry": { "type": "Point", "coordinates": [ -122.517956455999979, 47.157939986000031 ] } },
{ "type": "Feature", "properties": { "OBJECTID": 50, "NAME": "Clover Park Technical College - Main Campus", "ADDRESS": "4500 STEILACOOM BLVD SW", "CITY": "LAKEWOOD", "ZIP": "98499", "DISTRICT": "NOT APPLICABLE", "DIST_NO": " ", "TYPE": "TECHNICAL", "PHONE": "(253) 598-5800", "WEBSITE": "http://www.cptc.edu/contact", "PRS_ID": null, "GRADE": "Higher Education", "X_COORD": 1143490.2035000001, "Y_COORD": 677880.3485 }, "geometry": { "type": "Point", "coordinates": [ -122.498282235999966, 47.17492962700004 ] } },
{ "type": "Feature", "properties": { "OBJECTID": 51, "NAME": "Clover Park Technical College - South Hill Campus", "ADDRESS": "17214 110TH AVE E", "CITY": "PUYALLUP", "ZIP": "98374", "DISTRICT": "NOT APPLICABLE", "DIST_NO": " ", "TYPE": "TECHNICAL", "PHONE": "(253) 583-8904", "WEBSITE": "http://www.cptc.edu/contact", "PRS_ID": null, "GRADE": "Higher Education", "X_COORD": 1195979.9769, "Y_COORD": 648746.324 }, "geometry": { "type": "Point", "coordinates": [ -122.284632091999981, 47.098524386000065 ] } },
{ "type": "Feature", "properties": { "OBJECTID": 52, "NAME": "Collins Elementary School", "ADDRESS": "1920 128TH ST E", "CITY": "TACOMA", "ZIP": "98445", "DISTRICT": "FRANKLIN PIERCE", "DIST_NO": "402", "TYPE": "ELEM", "PHONE": "(253) 298-3400", "WEBSITE": "https://collins.fpschools.org/", "PRS_ID": null, "GRADE": null, "X_COORD": 1166689.9403, "Y_COORD": 664071.845 }, "geometry": { "type": "Point", "coordinates": [ -122.403686748999974, 47.138654841000061 ] } },
{ "type": "Feature", "properties": { "OBJECTID": 53, "NAME": "Columbia Crest A-STEM Academy", "ADDRESS": "24503 SR 706 E", "CITY": "ASHFORD", "ZIP": "98304", "DISTRICT": "EATONVILLE", "DIST_NO": "404", "TYPE": "ELEM", "PHONE": "(360) 569-2567", "WEBSITE": "https://www.eatonville.wednet.edu/cca", "PRS_ID": null, "GRADE": "K-6", "X_COORD": 1237003.3554, "Y_COORD": 522526.274 }, "geometry": { "type": "Point", "coordinates": [ -122.109610029999942, 46.754935470000078 ] } },
{ "type": "Feature", "properties": { "OBJECTID": 54, "NAME": "Columbia Junior High", "ADDRESS": "2901 54TH AVE E", "CITY": "FIFE", "ZIP": "98424", "DISTRICT": "FIFE", "DIST_NO": "417", "TYPE": "JRHIGH", "PHONE": "(253) 517-1600", "WEBSITE": "https://cjh.fifeschools.com/", "PRS_ID": null, "GRADE": "7-9", "X_COORD": 1179533.6057, "Y_COORD": 697320.39669999003 }, "geometry": { "type": "Point", "coordinates": [ -122.355235342999947, 47.230626390000054 ] } },
{ "type": "Feature", "properties": { "OBJECTID": 55, "NAME": "Community Transition Program and PIA", "ADDRESS": "5800 SOUNDVIEW DR - BLDG E", "CITY": "GIG HARBOR", "ZIP": "98335", "DISTRICT": "PENINSULA", "DIST_NO": "401", "TYPE": "OTHER", "PHONE": "(253) 530-3850", "WEBSITE": "https://psd401.net/community-transition-program/", "PRS_ID": null, "GRADE": "Higher Education", "X_COORD": 1124341.7756000001, "Y_COORD": 728122.4814 }, "geometry": { "type": "Point", "coordinates": [ -122.580576564999944, 47.311273566000068 ] } },
{ "type": "Feature", "properties": { "OBJECTID": 56, "NAME": "Concordia Christian Academy", "ADDRESS": "202 E 56TH ST", "CITY": "TACOMA", "ZIP": "98404", "DISTRICT": "NOT APPLICABLE", "DIST_NO": " ", "TYPE": "PRIVATE", "PHONE": "(253) 475-9513", "WEBSITE": "https://www.concordiachristianacademy.org/", "PRS_ID": null, "GRADE": "K-12", "X_COORD": 1161421.0812, "Y_COORD": 688548.8565 }, "geometry": { "type": "Point", "coordinates": [ -122.427254331999961, 47.205393857000047 ] } },
{ "type": "Feature", "properties": { "OBJECTID": 57, "NAME": "Cougar Mountain Middle School", "ADDRESS": "5108 260TH ST E", "CITY": "GRAHAM", "ZIP": "98338", "DISTRICT": "BETHEL", "DIST_NO": "403", "TYPE": "MID", "PHONE": "(253) 800-8000", "WEBSITE": "https://www.bethelsd.org/cmms", "PRS_ID": null, "GRADE": "7-9", "X_COORD": 1176379.5626000001, "Y_COORD": 619945.05840000999 }, "geometry": { "type": "Point", "coordinates": [ -122.360581259999947, 47.018335194000031 ] } },
{ "type": "Feature", "properties": { "OBJECTID": 58, "NAME": "Covenant High School", "ADDRESS": "620 S SHIRLEY ST", "CITY": "TACOMA", "ZIP": "98465", "DISTRICT": "NOT APPLICABLE", "DIST_NO": " ", "TYPE": "HIGH", "PHONE": "(253) 759-9570", "WEBSITE": "http://chstacoma.org/", "PRS_ID": null, "GRADE": "9-12", "X_COORD": 1141128.212, "Y_COORD": 706987.546 }, "geometry": { "type": "Point", "coordinates": [ -122.510759571999984, 47.254542407000031 ] } },
{ "type": "Feature", "properties": { "OBJECTID": 59, "NAME": "Crescent Heights Elementary School", "ADDRESS": "4110 NASSAU AVE NE", "CITY": "TACOMA", "ZIP": "98422", "DISTRICT": "TACOMA", "DIST_NO": "010", "TYPE": "ELEM", "PHONE": "(253) 571-5500", "WEBSITE": "https://ch.tacomaschools.org/", "PRS_ID": null, "GRADE": "K-5", "X_COORD": 1168927.60609999, "Y_COORD": 720942.7043 }, "geometry": { "type": "Point", "coordinates": [ -122.400202671999978, 47.294679925000025 ] } },
{ "type": "Feature", "properties": { "OBJECTID": 60, "NAME": "Crestwood Elementary School", "ADDRESS": "3914 WEST TAPPS DR E", "CITY": "BONNEY LAKE", "ZIP": "98391", "DISTRICT": "SUMNER", "DIST_NO": "320", "TYPE": "ELEM", "PHONE": "(253) 891-4550", "WEBSITE": "https://www.sumnersd.org/cwe", "PRS_ID": null, "GRADE": "K-6", "X_COORD": 1217925.1922000099, "Y_COORD": 692432.1654000001 }, "geometry": { "type": "Point", "coordinates": [ -122.200320079999983, 47.21959995900005 ] } },
{ "type": "Feature", "properties": { "OBJECTID": 61, "NAME": "Curtis Junior High School", "ADDRESS": "3725 GRANDVIEW DR W", "CITY": "UNIVERSITY PLACE", "ZIP": "98466", "DISTRICT": "UNIVERSITY PLACE", "DIST_NO": "083", "TYPE": "JRHIGH", "PHONE": "(253) 566-5670", "WEBSITE": "https://cjh.upsd83.org/", "PRS_ID": null, "GRADE": "7-9", "X_COORD": 1129913.2107000099, "Y_COORD": 695531.42739999003 }, "geometry": { "type": "Point", "coordinates": [ -122.554703406999977, 47.222351594000031 ] } },
{ "type": "Feature", "properties": { "OBJECTID": 62, "NAME": "Curtis Senior High School", "ADDRESS": "8425 40TH ST W", "CITY": "UNIVERSITY PLACE", "ZIP": "98466", "DISTRICT": "UNIVERSITY PLACE", "DIST_NO": "083", "TYPE": "HIGH", "PHONE": "(253) 566-5710", "WEBSITE": "https://chs.upsd83.org/", "PRS_ID": null, "GRADE": "9-12", "X_COORD": 1130941.5869, "Y_COORD": 695584.04880001 }, "geometry": { "type": "Point", "coordinates": [ -122.550571710999975, 47.22256918100004 ] } },
{ "type": "Feature", "properties": { "OBJECTID": 63, "NAME": "Custer Elementary School", "ADDRESS": "7801 STEILACOOM BLVD SW", "CITY": "LAKEWOOD", "ZIP": "98498", "DISTRICT": "CLOVER PARK", "DIST_NO": "400", "TYPE": "ELEM", "PHONE": "(253) 583-5230", "WEBSITE": "https://custer.cloverpark.k12.wa.us/", "PRS_ID": null, "GRADE": "K-6", "X_COORD": 1132963.7726, "Y_COORD": 680357.99779999 }, "geometry": { "type": "Point", "coordinates": [ -122.540851040999939, 47.18098158500004 ] } },
{ "type": "Feature", "properties": { "OBJECTID": 64, "NAME": "Daffodil Valley Elementary School", "ADDRESS": "1509 VALLEY AVE\r\n", "CITY": "SUMNER", "ZIP": "98390", "DISTRICT": "SUMNER", "DIST_NO": "320", "TYPE": "ELEM", "PHONE": "(253) 891-4600", "WEBSITE": "https://www.sumnersd.org/dve", "PRS_ID": null, "GRADE": "K-6", "X_COORD": 1211290.3766000001, "Y_COORD": 688289.96879999002 }, "geometry": { "type": "Point", "coordinates": [ -122.226648616999967, 47.207850852000036 ] } },
{ "type": "Feature", "properties": { "OBJECTID": 65, "NAME": "DeLong Elementary School", "ADDRESS": "4901 S 14TH ST", "CITY": "TACOMA", "ZIP": "98405", "DISTRICT": "TACOMA", "DIST_NO": "010", "TYPE": "ELEM", "PHONE": "(253) 571-5800", "WEBSITE": "https://delong.tacomaschools.org/", "PRS_ID": null, "GRADE": "K-5", "X_COORD": 1143298.9197, "Y_COORD": 705053.5367000001 }, "geometry": { "type": "Point", "coordinates": [ -122.501823721999983, 47.249393090000069 ] } },
{ "type": "Feature", "properties": { "OBJECTID": 66, "NAME": "Dessie F. Evans Elementary School", "ADDRESS": "7911 144TH ST E", "CITY": "PUYALLUP", "ZIP": "98375", "DISTRICT": "PUYALLUP", "DIST_NO": "003", "TYPE": "ELEM", "PHONE": "(253) 864-5500", "WEBSITE": "https://eva.puyallup.k12.wa.us/", "PRS_ID": null, "GRADE": "K-6", "X_COORD": 1186434.03919999, "Y_COORD": 659638.65009998996 }, "geometry": { "type": "Point", "coordinates": [ -122.323961444999952, 47.127782445000037 ] } },
{ "type": "Feature", "properties": { "OBJECTID": 67, "NAME": "Dieringer Heights Elementary School", "ADDRESS": "21727 34TH ST E", "CITY": "LAKE TAPPS", "ZIP": "98391", "DISTRICT": "DIERINGER", "DIST_NO": "343", "TYPE": "ELEM", "PHONE": "(253) 826-4937", "WEBSITE": "https://dhes.dieringer.wednet.edu/", "PRS_ID": null, "GRADE": "K-6", "X_COORD": 1233268.38, "Y_COORD": 695142.7342 }, "geometry": { "type": "Point", "coordinates": [ -122.138816024, 47.227920168000026 ] } },
{ "type": "Feature", "properties": { "OBJECTID": 68, "NAME": "Discovery Elementary School", "ADDRESS": "4905 ROSEDALE ST NW", "CITY": "GIG HARBOR", "ZIP": "98335", "DISTRICT": "PENINSULA", "DIST_NO": "401", "TYPE": "ELEM", "PHONE": "(253) 530-1200", "WEBSITE": "https://des.psd401.net/", "PRS_ID": null, "GRADE": "K-6", "X_COORD": 1118859.35879999, "Y_COORD": 735597.8316 }, "geometry": { "type": "Point", "coordinates": [ -122.603472230999955, 47.33136206000006 ] } },
{ "type": "Feature", "properties": { "OBJECTID": 69, "NAME": "Discovery Primary School", "ADDRESS": "1205 19TH AVE", "CITY": "MILTON", "ZIP": "98354", "DISTRICT": "FIFE", "DIST_NO": "417", "TYPE": "PRIM", "PHONE": "(253) 517-1200", "WEBSITE": "https://discovery.fifeschools.com/", "PRS_ID": null, "GRADE": "K-2", "X_COORD": 1190870.1938, "Y_COORD": 703753.6406 }, "geometry": { "type": "Point", "coordinates": [ -122.310211553999977, 47.248981585000081 ] } },
{ "type": "Feature", "properties": { "OBJECTID": 70, "NAME": "Donald Eismann Elementary School", "ADDRESS": "13802 CANYON VIEW BLVD E", "CITY": "BONNEY LAKE", "ZIP": "98391", "DISTRICT": "SUMNER", "DIST_NO": "320", "TYPE": "ELEM", "PHONE": "(253) 891-4500", "WEBSITE": "https://www.sumnersd.org/dee", "PRS_ID": null, "GRADE": "K-6", "X_COORD": 1223501.1492000101, "Y_COORD": 659980.27519999002 }, "geometry": { "type": "Point", "coordinates": [ -122.175113195999984, 47.130972907000057 ] } },
{ "type": "Feature", "properties": { "OBJECTID": 71, "NAME": "Dower Elementary School", "ADDRESS": "7817 JOHN DOWER RD W", "CITY": "LAKEWOOD", "ZIP": "98499", "DISTRICT": "CLOVER PARK", "DIST_NO": "400", "TYPE": "ELEM", "PHONE": "(253) 583-5240", "WEBSITE": "https://dower.cloverpark.k12.wa.us/", "PRS_ID": null, "GRADE": "K-6", "X_COORD": 1137567.4516, "Y_COORD": 681906.5317000001 }, "geometry": { "type": "Point", "coordinates": [ -122.522503978999964, 47.185550913000043 ] } },
{ "type": "Feature", "properties": { "OBJECTID": 72, "NAME": "Downing Elementary School", "ADDRESS": "2502 N ORCHARD ST", "CITY": "TACOMA", "ZIP": "98406", "DISTRICT": "TACOMA", "DIST_NO": "010", "TYPE": "ELEM", "PHONE": "(253) 571-7100", "WEBSITE": "https://downing.tacomaschools.org/", "PRS_ID": null, "GRADE": "K-5", "X_COORD": 1142301.32439999, "Y_COORD": 712435.963 }, "geometry": { "type": "Point", "coordinates": [ -122.506595273999949, 47.269557103000068 ] } },
{ "type": "Feature", "properties": { "OBJECTID": 73, "NAME": "Drum Intermediate School", "ADDRESS": "4909 79TH AVE W", "CITY": "UNIVERSITY PLACE", "ZIP": "98467", "DISTRICT": "UNIVERSITY PLACE", "DIST_NO": "083", "TYPE": "INTER", "PHONE": "(253) 566-5660", "WEBSITE": "https://di.upsd83.org/", "PRS_ID": null, "GRADE": "6-7", "X_COORD": 1133211.26629999, "Y_COORD": 691569.3661 }, "geometry": { "type": "Point", "coordinates": [ -122.541022602999988, 47.211727230000065 ] } },
{ "type": "Feature", "properties": { "OBJECTID": 74, "NAME": "Eatonville Elementary School", "ADDRESS": "209 LYNCH CREEK RD E", "CITY": "EATONVILLE", "ZIP": "98328", "DISTRICT": "EATONVILLE", "DIST_NO": "404", "TYPE": "ELEM", "PHONE": "(360) 879-1600", "WEBSITE": "https://www.eatonville.wednet.edu/ees", "PRS_ID": null, "GRADE": "K-6", "X_COORD": 1199600.5264000001, "Y_COORD": 565479.86929999001 }, "geometry": { "type": "Point", "coordinates": [ -122.262628217999975, 46.870496611000078 ] } },
{ "type": "Feature", "properties": { "OBJECTID": 75, "NAME": "Eatonville High School", "ADDRESS": "302 MASHELL AVE N", "CITY": "EATONVILLE", "ZIP": "98328", "DISTRICT": "EATONVILLE", "DIST_NO": "404", "TYPE": "HIGH", "PHONE": "(360) 879-1200", "WEBSITE": "https://www.eatonville.wednet.edu/ehs", "PRS_ID": null, "GRADE": "9-12", "X_COORD": 1198295.9523, "Y_COORD": 566004.44140001002 }, "geometry": { "type": "Point", "coordinates": [ -122.267889891999971, 46.871854575000043 ] } },
{ "type": "Feature", "properties": { "OBJECTID": 76, "NAME": "Eatonville Middle School", "ADDRESS": "207 CARTER ST E", "CITY": "EATONVILLE", "ZIP": "98328", "DISTRICT": "EATONVILLE", "DIST_NO": "404", "TYPE": "MID", "PHONE": "(360) 879-1400", "WEBSITE": "https://www.eatonville.wednet.edu/ems", "PRS_ID": null, "GRADE": "6-8", "X_COORD": 1199567.5478000001, "Y_COORD": 564795.1647 }, "geometry": { "type": "Point", "coordinates": [ -122.262698866999983, 46.868617603000075 ] } },
{ "type": "Feature", "properties": { "OBJECTID": 77, "NAME": "Edgemont Junior High School", "ADDRESS": "2300 110TH AVE E", "CITY": "EDGEWOOD", "ZIP": "98372", "DISTRICT": "PUYALLUP", "DIST_NO": "003", "TYPE": "JRHIGH", "PHONE": "(253) 841-8727", "WEBSITE": "https://ejh.puyallup.k12.wa.us/", "PRS_ID": null, "GRADE": "7-9", "X_COORD": 1197281.6737, "Y_COORD": 699084.2034 }, "geometry": { "type": "Point", "coordinates": [ -122.283977801, 47.236583318000044 ] } },
{ "type": "Feature", "properties": { "OBJECTID": 78, "NAME": "Edgerton Elementary School", "ADDRESS": "16528 127TH AVE CT E", "CITY": "PUYALLUP", "ZIP": "98374", "DISTRICT": "PUYALLUP", "DIST_NO": "003", "TYPE": "ELEM", "PHONE": "(253) 840-8809", "WEBSITE": "https://edg.puyallup.k12.wa.us/", "PRS_ID": null, "GRADE": "K-6", "X_COORD": 1202281.61579999, "Y_COORD": 651460.1543000001 }, "geometry": { "type": "Point", "coordinates": [ -122.259579420999955, 47.106351446000076 ] } },
{ "type": "Feature", "properties": { "OBJECTID": 79, "NAME": "Edison Elementary School", "ADDRESS": "5830 S PINE ST", "CITY": "TACOMA", "ZIP": "98409", "DISTRICT": "TACOMA", "DIST_NO": "010", "TYPE": "ELEM", "PHONE": "(253) 571-1700", "WEBSITE": "https://edison.tacomaschools.org/", "PRS_ID": null, "GRADE": "K-5", "X_COORD": 1149479.9127, "Y_COORD": 688253.45900001004 }, "geometry": { "type": "Point", "coordinates": [ -122.475250414999948, 47.203774392000071 ] } },
{ "type": "Feature", "properties": { "OBJECTID": 80, "NAME": "Elhi Hill High School Program", "ADDRESS": "1202 WOOD AVE", "CITY": "SUMNER", "ZIP": "98390", "DISTRICT": "SUMNER", "DIST_NO": "320", "TYPE": "HIGH", "PHONE": "(253) 891-6000", "WEBSITE": "https://www.sumnersd.org/Page/2978", "PRS_ID": null, "GRADE": "9-12", "X_COORD": 1208447.9569000001, "Y_COORD": 687276.4094 }, "geometry": { "type": "Point", "coordinates": [ -122.237991949, 47.204901501000052 ] } },
{ "type": "Feature", "properties": { "OBJECTID": 81, "NAME": "Elk Plain School of Choice K-8", "ADDRESS": "22015 22ND AVE E", "CITY": "SPANAWAY", "ZIP": "98387", "DISTRICT": "BETHEL", "DIST_NO": "403", "TYPE": "OTHER", "PHONE": "(253) 800-7900", "WEBSITE": "https://www.bethelsd.org/epsoc", "PRS_ID": null, "GRADE": "PRE-8", "X_COORD": 1167327.5409000099, "Y_COORD": 634103.1125 }, "geometry": { "type": "Point", "coordinates": [ -122.398227836999979, 47.056552293000038 ] } },
{ "type": "Feature", "properties": { "OBJECTID": 82, "NAME": "Elk Ridge Elementary School", "ADDRESS": "340 N RIVER AVE", "CITY": "BUCKLEY", "ZIP": "98321", "DISTRICT": "WHITE RIVER", "DIST_NO": "416", "TYPE": "ELEM", "PHONE": "(360) 829-3354", "WEBSITE": "http://elkridge.whiteriver.wednet.edu/", "PRS_ID": null, "GRADE": "K-6", "X_COORD": 1262718.6371, "Y_COORD": 672111.442 }, "geometry": { "type": "Point", "coordinates": [ -122.018521520999968, 47.166403510000066 ] } },
{ "type": "Feature", "properties": { "OBJECTID": 83, "NAME": "Elmhurst Elementary School", "ADDRESS": "420 133RD ST E", "CITY": "TACOMA", "ZIP": "98445", "DISTRICT": "FRANKLIN PIERCE", "DIST_NO": "402", "TYPE": "ELEM", "PHONE": "(253) 298-3500", "WEBSITE": "http://elmhurst.fpschools.org/", "PRS_ID": null, "GRADE": "K-6", "X_COORD": 1161448.3097000001, "Y_COORD": 663027.6829 }, "geometry": { "type": "Point", "coordinates": [ -122.424639738999986, 47.135444102000065 ] } },
{ "type": "Feature", "properties": { "OBJECTID": 84, "NAME": "Emerald Hills Elementary School", "ADDRESS": "19515 SOUTH TAPPS DR E", "CITY": "BONNEY LAKE", "ZIP": "98391", "DISTRICT": "SUMNER", "DIST_NO": "320", "TYPE": "ELEM", "PHONE": "(253) 891-4750", "WEBSITE": "https://www.sumnersd.org/ehe", "PRS_ID": null, "GRADE": "K-6", "X_COORD": 1225562.7965, "Y_COORD": 685716.5094 }, "geometry": { "type": "Point", "coordinates": [ -122.169019940999988, 47.201639046000025 ] } },
{ "type": "Feature", "properties": { "OBJECTID": 85, "NAME": "Emerald Ridge High School", "ADDRESS": "12405 184TH ST E", "CITY": "PUYALLUP", "ZIP": "98374", "DISTRICT": "PUYALLUP", "DIST_NO": "003", "TYPE": "HIGH", "PHONE": "(253) 435-6300", "WEBSITE": "https://erhs.puyallup.k12.wa.us/", "PRS_ID": null, "GRADE": "9-12", "X_COORD": 1201256.55149999, "Y_COORD": 645583.9782 }, "geometry": { "type": "Point", "coordinates": [ -122.263167342999964, 47.090181357000063 ] } },
{ "type": "Feature", "properties": { "OBJECTID": 86, "NAME": "Endeavour Intermediate School", "ADDRESS": "1304 17TH AVE\r\n", "CITY": "MILTON", "ZIP": "98354", "DISTRICT": "FIFE", "DIST_NO": "417", "TYPE": "INTER", "PHONE": "(253) 517-1400", "WEBSITE": "https://endeavour.fifeschools.com/", "PRS_ID": null, "GRADE": "2-5", "X_COORD": 1190674.42900001, "Y_COORD": 703154.749 }, "geometry": { "type": "Point", "coordinates": [ -122.31094421499995, 47.24732774000006 ] } },
{ "type": "Feature", "properties": { "OBJECTID": 87, "NAME": "Evergreen Elementary School", "ADDRESS": "1311 172ND ST E", "CITY": "SPANAWAY", "ZIP": "98387", "DISTRICT": "BETHEL", "DIST_NO": "403", "TYPE": "ELEM", "PHONE": "(253) 800-8200", "WEBSITE": "https://www.bethelsd.org/ees", "PRS_ID": null, "GRADE": "K-6", "X_COORD": 1164275.1648, "Y_COORD": 650631.89669999003 }, "geometry": { "type": "Point", "coordinates": [ -122.412077821999958, 47.10165599700008 ] } },
{ "type": "Feature", "properties": { "OBJECTID": 88, "NAME": "Evergreen Elementary School - Fort Lewis", "ADDRESS": "9020 BLAINE AVE", "CITY": "JBLM LEWIS MAIN", "ZIP": "98433", "DISTRICT": "CLOVER PARK", "DIST_NO": "400", "TYPE": "ELEM", "PHONE": "(253) 583-5250", "WEBSITE": "https://evergreen.cloverpark.k12.wa.us/", "PRS_ID": null, "GRADE": "K-6", "X_COORD": 1127413.11, "Y_COORD": 656133.5157 }, "geometry": { "type": "Point", "coordinates": [ -122.560619729999985, 47.114190629000063 ] } },
{ "type": "Feature", "properties": { "OBJECTID": 89, "NAME": "Evergreen Elementary School - Lakebay", "ADDRESS": "1632 KEY PENINSULA HWY S", "CITY": "LAKEBAY", "ZIP": "98349", "DISTRICT": "PENINSULA", "DIST_NO": "401", "TYPE": "ELEM", "PHONE": "(253) 530-1300", "WEBSITE": "https://ees.psd401.net/", "PRS_ID": null, "GRADE": "K-6", "X_COORD": 1076163.77509999, "Y_COORD": 703823.0556 }, "geometry": { "type": "Point", "coordinates": [ -122.771884275, 47.241034925000065 ] } },
{ "type": "Feature", "properties": { "OBJECTID": 90, "NAME": "Evergreen Lutheran High School", "ADDRESS": "7306 WALLER RD E", "CITY": "TACOMA", "ZIP": "98443", "DISTRICT": "NOT APPLICABLE", "DIST_NO": " ", "TYPE": "PRIVATE", "PHONE": "(253) 946-4488", "WEBSITE": "https://www.elhs.org/", "PRS_ID": null, "GRADE": "9-12", "X_COORD": 1169753.1012, "Y_COORD": 682698.4223 }, "geometry": { "type": "Point", "coordinates": [ -122.393178291999959, 47.189911519000077 ] } },
{ "type": "Feature", "properties": { "OBJECTID": 91, "NAME": "Evergreen Primary School - University Place", "ADDRESS": "7102 40TH ST W", "CITY": "UNIVERSITY PLACE", "ZIP": "98466", "DISTRICT": "UNIVERSITY PLACE", "DIST_NO": "083", "TYPE": "PRIM", "PHONE": "(253) 566-5680", "WEBSITE": "https://ep.upsd83.org/", "PRS_ID": null, "GRADE": "K-2", "X_COORD": 1135883.1824, "Y_COORD": 694183.69410000998 }, "geometry": { "type": "Point", "coordinates": [ -122.530546189999939, 47.219081585000026 ] } },
{ "type": "Feature", "properties": { "OBJECTID": 92, "NAME": "Evergreen State College", "ADDRESS": "1210 6TH AVE", "CITY": "TACOMA", "ZIP": "98405", "DISTRICT": "NOT APPLICABLE", "DIST_NO": " ", "TYPE": "COLLEGE", "PHONE": "(253) 680-3000", "WEBSITE": "https://www.evergreen.edu/tacoma", "PRS_ID": null, "GRADE": "Higher Education", "X_COORD": 1155007.36839999, "Y_COORD": 707319.661 }, "geometry": { "type": "Point", "coordinates": [ -122.45492109199995, 47.25640912800003 ] } },
{ "type": "Feature", "properties": { "OBJECTID": 93, "NAME": "Faith Baptist Christian Academy", "ADDRESS": "5714 29TH ST NE", "CITY": "TACOMA", "ZIP": "98422", "DISTRICT": "NOT APPLICABLE", "DIST_NO": " ", "TYPE": "PRIVATE", "PHONE": "(253) 927-7673", "WEBSITE": "http://www.foundedonfaith.com/education-fbca.php", "PRS_ID": null, "GRADE": "K-12", "X_COORD": 1176206.611, "Y_COORD": 716059.2573000001 }, "geometry": { "type": "Point", "coordinates": [ -122.370411177999983, 47.281772139000054 ] } },
{ "type": "Feature", "properties": { "OBJECTID": 94, "NAME": "Faith Lutheran Elementary School", "ADDRESS": "101 S 96TH ST", "CITY": "TACOMA", "ZIP": "98444", "DISTRICT": "NOT APPLICABLE", "DIST_NO": " ", "TYPE": "PRIVATE", "PHONE": "(253) 537-2696", "WEBSITE": "https://www.faith-wels.org/", "PRS_ID": null, "GRADE": "K-12", "X_COORD": 1159897.30580001, "Y_COORD": 675860.0318 }, "geometry": { "type": "Point", "coordinates": [ -122.432132497999987, 47.170512821000045 ] } },
{ "type": "Feature", "properties": { "OBJECTID": 95, "NAME": "Fawcett Elementary", "ADDRESS": "3702 McKinley Ave", "CITY": "TACOMA", "ZIP": "98404", "DISTRICT": "TACOMA", "DIST_NO": "010", "TYPE": "ELEM", "PHONE": "(253) 571-4700", "WEBSITE": "https://fawcett.tacomaschools.org/", "PRS_ID": null, "GRADE": "K-5", "X_COORD": 1160714.2145, "Y_COORD": 687367.8219 }, "geometry": { "type": "Point", "coordinates": [ -122.42998105099997, 47.202109391000079 ] } },
{ "type": "Feature", "properties": { "OBJECTID": 96, "NAME": "Fern Hill Elementary School", "ADDRESS": "8442 S PARK AVE", "CITY": "TACOMA", "ZIP": "98444", "DISTRICT": "TACOMA", "DIST_NO": "010", "TYPE": "ELEM", "PHONE": "(253) 571-3888", "WEBSITE": "https://fh.tacomaschools.org/", "PRS_ID": null, "GRADE": "K-5", "X_COORD": 1157378.9672000001, "Y_COORD": 679308.2703 }, "geometry": { "type": "Point", "coordinates": [ -122.44259587099998, 47.179794556000047 ] } },
{ "type": "Feature", "properties": { "OBJECTID": 97, "NAME": "Ferrucci Junior High School", "ADDRESS": "3213 WILDWOOD PARK DR", "CITY": "PUYALLUP", "ZIP": "98374", "DISTRICT": "PUYALLUP", "DIST_NO": "003", "TYPE": "JRHIGH", "PHONE": "(253) 841-8756", "WEBSITE": "https://fjh.puyallup.k12.wa.us/", "PRS_ID": null, "GRADE": "7-9", "X_COORD": 1200189.5958, "Y_COORD": 671441.78129999002 }, "geometry": { "type": "Point", "coordinates": [ -122.269778533999954, 47.160994559000073 ] } },
{ "type": "Feature", "properties": { "OBJECTID": 98, "NAME": "Fife High School", "ADDRESS": "5616 20TH ST E", "CITY": "FIFE", "ZIP": "98424", "DISTRICT": "FIFE", "DIST_NO": "417", "TYPE": "HIGH", "PHONE": "(253) 517-1100", "WEBSITE": "https://fhs.fifeschools.com/", "PRS_ID": null, "GRADE": "9-12", "X_COORD": 1180353.6565, "Y_COORD": 699886.7252 }, "geometry": { "type": "Point", "coordinates": [ -122.352178064999976, 47.237713325000072 ] } },
{ "type": "Feature", "properties": { "OBJECTID": 99, "NAME": "Firgrove Elementary School", "ADDRESS": "13918 MERIDIAN AVE E", "CITY": "PUYALLUP", "ZIP": "98373", "DISTRICT": "PUYALLUP", "DIST_NO": "003", "TYPE": "ELEM", "PHONE": "(253) 841-8733", "WEBSITE": "https://fir.puyallup.k12.wa.us/", "PRS_ID": null, "GRADE": "K-6", "X_COORD": 1193794.4536, "Y_COORD": 660360.9068 }, "geometry": { "type": "Point", "coordinates": [ -122.294465873999968, 47.130225040000028 ] } },
{ "type": "Feature", "properties": { "OBJECTID": 100, "NAME": "First Creek Middle School", "ADDRESS": "1801 E 56TH ST", "CITY": "TACOMA", "ZIP": "98404", "DISTRICT": "TACOMA", "DIST_NO": "010", "TYPE": "MID", "PHONE": "(253) 571-2700", "WEBSITE": "https://fc.tacomaschools.org/", "PRS_ID": null, "GRADE": "6-8", "X_COORD": 1167079.6795000001, "Y_COORD": 689500.6292 }, "geometry": { "type": "Point", "coordinates": [ -122.404588129, 47.208379370000046 ] } },
{ "type": "Feature", "properties": { "OBJECTID": 101, "NAME": "First Presbyterian Church School", "ADDRESS": "20 TACOMA AVE S", "CITY": "TACOMA", "ZIP": "98402", "DISTRICT": "NOT APPLICABLE", "DIST_NO": " ", "TYPE": "PRIVATE", "PHONE": "(253) 225-1721", "WEBSITE": "http://www.fpcschool.org/", "PRS_ID": null, "GRADE": "K-8", "X_COORD": 1156969.0065000099, "Y_COORD": 709754.61499998998 }, "geometry": { "type": "Point", "coordinates": [ -122.447266118999949, 47.263215898000055 ] } },
{ "type": "Feature", "properties": { "OBJECTID": 102, "NAME": "Firwood Secondary School", "ADDRESS": "8805 STEILACOOM BLVD SW", "CITY": "LAKEWOOD", "ZIP": "98498", "DISTRICT": "CLOVER PARK", "DIST_NO": "400", "TYPE": "HIGH", "PHONE": "(253) 756-2522", "WEBSITE": null, "PRS_ID": null, "GRADE": "9-12", "X_COORD": 1128053.56280001, "Y_COORD": 680859.65899998997 }, "geometry": { "type": "Point", "coordinates": [ -122.560642455999982, 47.182006563000073 ] } },
{ "type": "Feature", "properties": { "OBJECTID": 103, "NAME": "Foothills Elementary School", "ADDRESS": "10621 234TH AVE E", "CITY": "BUCKLEY", "ZIP": "98321", "DISTRICT": "WHITE RIVER", "DIST_NO": "416", "TYPE": "ELEM", "PHONE": "(360) 829-3355", "WEBSITE": "http://foothills.whiteriver.wednet.edu/", "PRS_ID": null, "GRADE": "K-6", "X_COORD": 1238808.609, "Y_COORD": 670539.611 }, "geometry": { "type": "Point", "coordinates": [ -122.114495555999952, 47.160792941000068 ] } },
{ "type": "Feature", "properties": { "OBJECTID": 104, "NAME": "Ford Middle School", "ADDRESS": "1602 104TH ST E", "CITY": "TACOMA", "ZIP": "98445", "DISTRICT": "FRANKLIN PIERCE", "DIST_NO": "402", "TYPE": "MID", "PHONE": "(253) 298-3600", "WEBSITE": "http://ford.fpschools.org/", "PRS_ID": null, "GRADE": "6-8", "X_COORD": 1165711.7364999901, "Y_COORD": 672168.6406 }, "geometry": { "type": "Point", "coordinates": [ -122.408403239, 47.160783030000061 ] } },
{ "type": "Feature", "properties": { "OBJECTID": 105, "NAME": "Foss High School", "ADDRESS": "2112 S TYLER ST", "CITY": "TACOMA", "ZIP": "98405", "DISTRICT": "TACOMA", "DIST_NO": "010", "TYPE": "HIGH", "PHONE": "(253) 571-7300", "WEBSITE": "https://foss.tacomaschools.org/", "PRS_ID": null, "GRADE": "9-12", "X_COORD": 1144906.2869, "Y_COORD": 701054.87270000996 }, "geometry": { "type": "Point", "coordinates": [ -122.494946678999952, 47.238545241000054 ] } },
{ "type": "Feature", "properties": { "OBJECTID": 106, "NAME": "Four Heroes Elementary School", "ADDRESS": "9101 LAKEWOOD DR SW", "CITY": "LAKEWOOD", "ZIP": "98499", "DISTRICT": "CLOVER PARK", "DIST_NO": "400", "TYPE": "ELEM", "PHONE": "(253) 583-5340", "WEBSITE": "https://fourheroes.cloverpark.k12.wa.us/", "PRS_ID": null, "GRADE": "6-8", "X_COORD": 1141868.4293, "Y_COORD": 677822.3946 }, "geometry": { "type": "Point", "coordinates": [ -122.504795123999941, 47.174657964000062 ] } },
{ "type": "Feature", "properties": { "OBJECTID": 107, "NAME": "Franklin Elementary School", "ADDRESS": "1402 S LAWRENCE ST", "CITY": "TACOMA", "ZIP": "98405", "DISTRICT": "TACOMA", "DIST_NO": "010", "TYPE": "ELEM", "PHONE": "(253) 571-1400", "WEBSITE": "https://franklin.tacomaschools.org/", "PRS_ID": null, "GRADE": "K-5", "X_COORD": 1148914.6711000099, "Y_COORD": 704660.41850001004 }, "geometry": { "type": "Point", "coordinates": [ -122.479179707999947, 47.248704134000036 ] } },
{ "type": "Feature", "properties": { "OBJECTID": 108, "NAME": "Franklin Pierce High School", "ADDRESS": "11002 18TH AVE E", "CITY": "TACOMA", "ZIP": "98445", "DISTRICT": "FRANKLIN PIERCE", "DIST_NO": "402", "TYPE": "HIGH", "PHONE": "(253) 298-3800", "WEBSITE": "http://franklinpiercehighschool.fpschools.org/", "PRS_ID": null, "GRADE": "9-12", "X_COORD": 1165780.3036, "Y_COORD": 670735.04279999004 }, "geometry": { "type": "Point", "coordinates": [ -122.407988308999961, 47.15685815900008 ] } },
{ "type": "Feature", "properties": { "OBJECTID": 109, "NAME": "Frederickson Elementary", "ADDRESS": "17218 74TH AVE E", "CITY": "PUYALLUP", "ZIP": "98375", "DISTRICT": "BETHEL", "DIST_NO": "403", "TYPE": "ELEM", "PHONE": "(253) 800-6300", "WEBSITE": "https://www.bethelsd.org/fes", "PRS_ID": null, "GRADE": "PRE-6", "X_COORD": 1184153.20640001, "Y_COORD": 649286.0714 }, "geometry": { "type": "Point", "coordinates": [ -122.332155872999977, 47.099260504000029 ] } },
{ "type": "Feature", "properties": { "OBJECTID": 110, "NAME": "Freedom River Out Reach", "ADDRESS": "106 S 28TH ST", "CITY": "TACOMA", "ZIP": "98402", "DISTRICT": "NOT APPLICABLE", "DIST_NO": " ", "TYPE": "COLLEGE", "PHONE": "(253)  442-2040", "WEBSITE": "https://freedomriver.net/contact", "PRS_ID": null, "GRADE": "Higher Education", "X_COORD": 1160124.6015000001, "Y_COORD": 699691.752 }, "geometry": { "type": "Point", "coordinates": [ -122.43356750099997, 47.235848098000076 ] } },
{ "type": "Feature", "properties": { "OBJECTID": 111, "NAME": "Frontier Middle School", "ADDRESS": "22110 108TH AVE E", "CITY": "GRAHAM", "ZIP": "98338", "DISTRICT": "BETHEL", "DIST_NO": "403", "TYPE": "MID", "PHONE": "(253) 683-8300", "WEBSITE": "https://www.bethelsd.org/fms", "PRS_ID": null, "GRADE": "7-9", "X_COORD": 1194439.998, "Y_COORD": 633132.42219999002 }, "geometry": { "type": "Point", "coordinates": [ -122.289391640999952, 47.055629094000039 ] } },
{ "type": "Feature", "properties": { "OBJECTID": 112, "NAME": "Fruitland Elementary School", "ADDRESS": "1515 S FRUITLAND", "CITY": "PUYALLUP", "ZIP": "98371", "DISTRICT": "PUYALLUP", "DIST_NO": "003", "TYPE": "ELEM", "PHONE": "(253) 841-8734", "WEBSITE": "https://fru.puyallup.k12.wa.us/", "PRS_ID": null, "GRADE": "K-6", "X_COORD": 1186734.4158000101, "Y_COORD": 677168.6177 }, "geometry": { "type": "Point", "coordinates": [ -122.324383777999969, 47.175851575000081 ] } },
{ "type": "Feature", "properties": { "OBJECTID": 113, "NAME": "GATES High School", "ADDRESS": "813 132ND ST S", "CITY": "TACOMA", "ZIP": "98444", "DISTRICT": "FRANKLIN PIERCE", "DIST_NO": "402", "TYPE": "HIGH", "PHONE": "(253) 298-4000", "WEBSITE": "http://gates.fpschools.org/", "PRS_ID": null, "GRADE": "9-12", "X_COORD": 1156673.41859999, "Y_COORD": 664063.7245 }, "geometry": { "type": "Point", "coordinates": [ -122.443921545999956, 47.137962827000081 ] } },
{ "type": "Feature", "properties": { "OBJECTID": 114, "NAME": "Geiger Montessori School", "ADDRESS": "7401 S 8TH ST", "CITY": "TACOMA", "ZIP": "98465", "DISTRICT": "TACOMA", "DIST_NO": "010", "TYPE": "ELEM", "PHONE": "(253) 571-6800", "WEBSITE": "https://geiger.tacomaschools.org/", "PRS_ID": null, "GRADE": "K-5", "X_COORD": 1134986.323, "Y_COORD": 707072.6126 }, "geometry": { "type": "Point", "coordinates": [ -122.535492421999948, 47.254343696000035 ] } },
{ "type": "Feature", "properties": { "OBJECTID": 115, "NAME": "Giaudrone Middle School", "ADDRESS": "4902 S ALASKA ST", "CITY": "TACOMA", "ZIP": "98408", "DISTRICT": "TACOMA", "DIST_NO": "010", "TYPE": "MID", "PHONE": "(253) 571-5811", "WEBSITE": "https://giaudrone.tacomaschools.org/", "PRS_ID": null, "GRADE": "6-8", "X_COORD": 1153329.5324, "Y_COORD": 691084.9589 }, "geometry": { "type": "Point", "coordinates": [ -122.460051168999939, 47.211798375000058 ] } },
{ "type": "Feature", "properties": { "OBJECTID": 116, "NAME": "Gig Harbor Academy", "ADDRESS": "6820 32ND ST NW", "CITY": "GIG HARBOR", "ZIP": "98335", "DISTRICT": "NOT APPLICABLE", "DIST_NO": " ", "TYPE": "PRIVATE", "PHONE": "(253) 265-2150", "WEBSITE": "http://www.gigharboracademy.org", "PRS_ID": null, "GRADE": "K-6", "X_COORD": 1111832.461, "Y_COORD": 719090.4558 }, "geometry": { "type": "Point", "coordinates": [ -122.63000107, 47.285604827000043 ] } },
{ "type": "Feature", "properties": { "OBJECTID": 117, "NAME": "Gig Harbor High School", "ADDRESS": "5101 ROSEDALE ST NW", "CITY": "GIG HARBOR", "ZIP": "98335", "DISTRICT": "PENINSULA", "DIST_NO": "401", "TYPE": "HIGH", "PHONE": "(253) 530-1400", "WEBSITE": "https://ghh.psd401.net/", "PRS_ID": null, "GRADE": "9-12", "X_COORD": 1118248.311, "Y_COORD": 735968.1762 }, "geometry": { "type": "Point", "coordinates": [ -122.605975322999939, 47.332332330000042 ] } },
{ "type": "Feature", "properties": { "OBJECTID": 118, "NAME": "Glacier Middle School", "ADDRESS": "240 N C ST", "CITY": "BUCKLEY", "ZIP": "98321", "DISTRICT": "WHITE RIVER", "DIST_NO": "416", "TYPE": "MID", "PHONE": "(360) 829-3395", "WEBSITE": "http://glacier.whiteriver.wednet.edu/", "PRS_ID": null, "GRADE": "6-8", "X_COORD": 1261533.87019999, "Y_COORD": 671724.33759998996 }, "geometry": { "type": "Point", "coordinates": [ -122.023253598999986, 47.165279736000059 ] } },
{ "type": "Feature", "properties": { "OBJECTID": 119, "NAME": "Glacier View Junior High", "ADDRESS": "12807 184TH ST E", "CITY": "PUYALLUP", "ZIP": "98374", "DISTRICT": "PUYALLUP", "DIST_NO": "003", "TYPE": "JRHIGH", "PHONE": "(253) 840-8922", "WEBSITE": "https://gvjh.puyallup.k12.wa.us/", "PRS_ID": null, "GRADE": "7-9", "X_COORD": 1202591.5985000001, "Y_COORD": 644844.6444 }, "geometry": { "type": "Point", "coordinates": [ -122.25774295399998, 47.088236435000056 ] } },
{ "type": "Feature", "properties": { "OBJECTID": 120, "NAME": "Goodman Middle School", "ADDRESS": "3701 38TH AVE NW", "CITY": "GIG HARBOR", "ZIP": "98335", "DISTRICT": "PENINSULA", "DIST_NO": "401", "TYPE": "MID", "PHONE": "(253) 530-1600", "WEBSITE": "https://gms.psd401.net/", "PRS_ID": null, "GRADE": "6-8", "X_COORD": 1121466.2921, "Y_COORD": 721376.6825 }, "geometry": { "type": "Point", "coordinates": [ -122.591442831999984, 47.292577248000043 ] } },
{ "type": "Feature", "properties": { "OBJECTID": 121, "NAME": "Graham-Kapowsin High School", "ADDRESS": "22100 108TH AVE E", "CITY": "GRAHAM", "ZIP": "98338", "DISTRICT": "BETHEL", "DIST_NO": "403", "TYPE": "HIGH", "PHONE": "(253) 800-6100", "WEBSITE": "https://www.bethelsd.org/gkhs", "PRS_ID": null, "GRADE": "9-12", "X_COORD": 1195119.1702000101, "Y_COORD": 634109.0733 }, "geometry": { "type": "Point", "coordinates": [ -122.286756282999988, 47.058348443000057 ] } },
{ "type": "Feature", "properties": { "OBJECTID": 122, "NAME": "Graham Elementary School", "ADDRESS": "10026 204TH ST E", "CITY": "GRAHAM", "ZIP": "98338", "DISTRICT": "BETHEL", "DIST_NO": "403", "TYPE": "ELEM", "PHONE": "(253) 800-8500", "WEBSITE": "https://www.bethelsd.org/ges", "PRS_ID": null, "GRADE": "K-6", "X_COORD": 1192704.3869999901, "Y_COORD": 638184.95810000994 }, "geometry": { "type": "Point", "coordinates": [ -122.296814749999953, 47.069370590000062 ] } },
{ "type": "Feature", "properties": { "OBJECTID": 123, "NAME": "Grant Center for the Expressive Arts", "ADDRESS": "2510 N 11TH ST", "CITY": "TACOMA", "ZIP": "98406", "DISTRICT": "TACOMA", "DIST_NO": "010", "TYPE": "ELEM", "PHONE": "(253) 571-5400", "WEBSITE": "https://grant.tacomaschools.org/", "PRS_ID": null, "GRADE": "", "X_COORD": 1151237.91940001, "Y_COORD": 708421.7145 }, "geometry": { "type": "Point", "coordinates": [ -122.470206594999979, 47.259172530000058 ] } },
{ "type": "Feature", "properties": { "OBJECTID": 124, "NAME": "Gray Middle School", "ADDRESS": "6229 S TYLER ST", "CITY": "TACOMA", "ZIP": "98409", "DISTRICT": "TACOMA", "DIST_NO": "010", "TYPE": "MID", "PHONE": "(253) 571-5200", "WEBSITE": "https://gray.tacomaschools.org/", "PRS_ID": null, "GRADE": "6-8", "X_COORD": 1145461.8349000099, "Y_COORD": 687083.41599998996 }, "geometry": { "type": "Point", "coordinates": [ -122.491291213999943, 47.200290522000046 ] } },
{ "type": "Feature", "properties": { "OBJECTID": 125, "NAME": "Harbor Christian Schools", "ADDRESS": "6509 38TH AVE NW", "CITY": "GIG HARBOR", "ZIP": "98335", "DISTRICT": "NOT APPLICABLE", "DIST_NO": " ", "TYPE": "PRIVATE", "PHONE": "(253) 857-6242", "WEBSITE": "http://www.harborchristianschools.org/", "PRS_ID": null, "GRADE": "K-12", "X_COORD": 1122373.1041000001, "Y_COORD": 730465.7291 }, "geometry": { "type": "Point", "coordinates": [ -122.588759747999973, 47.317552921000072 ] } },
{ "type": "Feature", "properties": { "OBJECTID": 126, "NAME": "Harbor Heights Elementary School", "ADDRESS": "4002 36TH ST NW", "CITY": "GIG HARBOR", "ZIP": "98335", "DISTRICT": "PENINSULA", "DIST_NO": "401", "TYPE": "ELEM", "PHONE": "(253) 530-1800", "WEBSITE": "https://hhe.psd401.net/", "PRS_ID": null, "GRADE": "K-6", "X_COORD": 1120959.18790001, "Y_COORD": 721542.0157 }, "geometry": { "type": "Point", "coordinates": [ -122.593503254999973, 47.292993491000061 ] } },
{ "type": "Feature", "properties": { "OBJECTID": 127, "NAME": "Harbor Montessori School", "ADDRESS": "5414 COMTE DR NW", "CITY": "GIG HARBOR", "ZIP": "98335", "DISTRICT": "NOT APPLICABLE", "DIST_NO": " ", "TYPE": "PRIVATE", "PHONE": "(253) 851-5722", "WEBSITE": "http://www.harbormontessori.org", "PRS_ID": null, "GRADE": "K-9", "X_COORD": 1116795.4209, "Y_COORD": 731225.1789000001 }, "geometry": { "type": "Point", "coordinates": [ -122.611320316, 47.319227199000068 ] } },
{ "type": "Feature", "properties": { "OBJECTID": 128, "NAME": "Harbor Ridge Middle School", "ADDRESS": "9010 PRENTICE AVE NW", "CITY": "GIG HARBOR", "ZIP": "98332", "DISTRICT": "PENINSULA", "DIST_NO": "401", "TYPE": "MID", "PHONE": "(253) 530-1900", "WEBSITE": "https://hrm.psd401.net/", "PRS_ID": null, "GRADE": "6-8", "X_COORD": 1121524.5588, "Y_COORD": 739119.75319999002 }, "geometry": { "type": "Point", "coordinates": [ -122.593105212999944, 47.34120858600005 ] } },
{ "type": "Feature", "properties": { "OBJECTID": 129, "NAME": "Harrison Preparatory School", "ADDRESS": "9103 LAKEWOOD DR SW", "CITY": "LAKEWOOD", "ZIP": "98499", "DISTRICT": "CLOVER PARK", "DIST_NO": "400", "TYPE": "HIGH", "PHONE": "(253) 583-5418", "WEBSITE": "https://harrisonprep.cloverpark.k12.wa.us/", "PRS_ID": null, "GRADE": "9-12", "X_COORD": 1141407.5825, "Y_COORD": 677816.40440001001 }, "geometry": { "type": "Point", "coordinates": [ -122.506646899999964, 47.174609420000081 ] } },
{ "type": "Feature", "properties": { "OBJECTID": 130, "NAME": "Harvard Elementary School", "ADDRESS": "1709 85TH ST E", "CITY": "TACOMA", "ZIP": "98445", "DISTRICT": "FRANKLIN PIERCE", "DIST_NO": "402", "TYPE": "ELEM", "PHONE": "(253) 298-4100", "WEBSITE": "http://harvard.fpschools.org/", "PRS_ID": null, "GRADE": "K-6", "X_COORD": 1166612.5416000001, "Y_COORD": 679532.5184 }, "geometry": { "type": "Point", "coordinates": [ -122.405498277999982, 47.181026674000066 ] } },
{ "type": "Feature", "properties": { "OBJECTID": 131, "NAME": "Heritage Christian School", "ADDRESS": "5412 67TH AVE W", "CITY": "UNIVERSITY PLACE", "ZIP": "98467", "DISTRICT": "NOT APPLICABLE", "DIST_NO": " ", "TYPE": "PRIVATE", "PHONE": "(253) 564-6276", "WEBSITE": "http://www.heritagecs.net", "PRS_ID": null, "GRADE": "K-6", "X_COORD": 1136434.6981, "Y_COORD": 690027.5572 }, "geometry": { "type": "Point", "coordinates": [ -122.527897591999988, 47.207729380000046 ] } },
{ "type": "Feature", "properties": { "OBJECTID": 132, "NAME": "Hewins Early Learning Center", "ADDRESS": "12223 A ST S", "CITY": "TACOMA", "ZIP": "98444", "DISTRICT": "FRANKLIN PIERCE", "DIST_NO": "402", "TYPE": "OTHER", "PHONE": "(253) 298-4675", "WEBSITE": "http://elc.fpschools.org/", "PRS_ID": null, "GRADE": "PRE", "X_COORD": 1159925.13160001, "Y_COORD": 666764.70999998995 }, "geometry": { "type": "Point", "coordinates": [ -122.431125460999965, 47.145585045000075 ] } },
{ "type": "Feature", "properties": { "OBJECTID": 133, "NAME": "Hillside Elementary School", "ADDRESS": "61700 GARCIA BLVD", "CITY": "JBLM LEWIS MAIN", "ZIP": "98433", "DISTRICT": "CLOVER PARK", "DIST_NO": "400", "TYPE": "ELEM", "PHONE": "(253) 583-5280", "WEBSITE": "https://hillside.cloverpark.k12.wa.us/", "PRS_ID": null, "GRADE": "K-6", "X_COORD": 1124957.0449000001, "Y_COORD": 652620.13330001 }, "geometry": { "type": "Point", "coordinates": [ -122.570110377, 47.104384636000077 ] } },
{ "type": "Feature", "properties": { "OBJECTID": 134, "NAME": "Hilltop Heritage Middle School", "ADDRESS": "602 N SPRAGUE AVE", "CITY": "TACOMA", "ZIP": "98403", "DISTRICT": "TACOMA", "DIST_NO": "010", "TYPE": "MID", "PHONE": "(253) 571-7700", "WEBSITE": "https://hh.tacomaschools.org/", "PRS_ID": null, "GRADE": "6-8", "X_COORD": 1152583.0523000101, "Y_COORD": 707388.5927 }, "geometry": { "type": "Point", "coordinates": [ -122.464687586999958, 47.256432929000027 ] } },
{ "type": "Feature", "properties": { "OBJECTID": 135, "NAME": "Holy Rosary Bilingual Academy", "ADDRESS": "2323 54TH AVE E", "CITY": "FIFE", "ZIP": "98424", "DISTRICT": "NOT APPLICABLE", "DIST_NO": " ", "TYPE": "PRIVATE", "PHONE": "(253) 272-7012", "WEBSITE": "http://hrrsjda.org/wordpress/", "PRS_ID": null, "GRADE": "K-6", "X_COORD": 1179496.8888000001, "Y_COORD": 698933.75399998995 }, "geometry": { "type": "Point", "coordinates": [ -122.355535837, 47.235046106000027 ] } },
{ "type": "Feature", "properties": { "OBJECTID": 136, "NAME": "Hosanna Christian School", "ADDRESS": "3114 45TH ST CT NW", "CITY": "GIG HARBOR", "ZIP": "98335", "DISTRICT": "NOT APPLICABLE", "DIST_NO": " ", "TYPE": "PRIVATE", "PHONE": "(253) 851-8952", "WEBSITE": "http://www.hosannachristianschool.org/", "PRS_ID": null, "GRADE": "K-6", "X_COORD": 1124065.7882000101, "Y_COORD": 723544.64229999005 }, "geometry": { "type": "Point", "coordinates": [ -122.581201852999982, 47.298707360000037 ] } },
{ "type": "Feature", "properties": { "OBJECTID": 137, "NAME": "Hudtloff Middle School", "ADDRESS": "8102 PHILLIPS RD SW", "CITY": "LAKEWOOD", "ZIP": "98498", "DISTRICT": "CLOVER PARK", "DIST_NO": "400", "TYPE": "MID", "PHONE": "(253) 583-5400", "WEBSITE": "https://hudtloff.cloverpark.k12.wa.us/", "PRS_ID": null, "GRADE": "6-8", "X_COORD": 1133201.6525000001, "Y_COORD": 681250.0025 }, "geometry": { "type": "Point", "coordinates": [ -122.539987533999977, 47.183443271000044 ] } },
{ "type": "Feature", "properties": { "OBJECTID": 138, "NAME": "Hunt Elementary School", "ADDRESS": "12801 144TH ST E", "CITY": "PUYALLUP", "ZIP": "98374", "DISTRICT": "PUYALLUP", "DIST_NO": "003", "TYPE": "ELEM", "PHONE": "(253) 841-8690", "WEBSITE": "https://hun.puyallup.k12.wa.us/", "PRS_ID": null, "GRADE": "K-6", "X_COORD": 1202819.6241, "Y_COORD": 658955.6388 }, "geometry": { "type": "Point", "coordinates": [ -122.258090301999971, 47.126930283000036 ] } },
{ "type": "Feature", "properties": { "OBJECTID": 139, "NAME": "Hunt Middle School", "ADDRESS": "6501 S 10TH ST", "CITY": "TACOMA", "ZIP": "98465", "DISTRICT": "TACOMA", "DIST_NO": "010", "TYPE": "ELEM", "PHONE": "(253) 571-2403", "WEBSITE": "https://hunt.tacomaschools.org/", "PRS_ID": null, "GRADE": "K-5", "X_COORD": 1137953.8134000001, "Y_COORD": 706566.0631 }, "geometry": { "type": "Point", "coordinates": [ -122.523494543999959, 47.253164682000033 ] } },
{ "type": "Feature", "properties": { "OBJECTID": 140, "NAME": "iDEA - School of Industrial Design, Engineering and Art", "ADDRESS": "6701 S PARK AVE", "CITY": "TACOMA", "ZIP": "98408", "DISTRICT": "TACOMA", "DIST_NO": "010", "TYPE": "HIGH", "PHONE": "(253) 571-2555", "WEBSITE": "https://idea.tacomaschools.org/", "PRS_ID": null, "GRADE": "9-12", "X_COORD": 1158035.4665000001, "Y_COORD": 685225.76100000995 }, "geometry": { "type": "Point", "coordinates": [ -122.440542106999942, 47.196058066000035 ] } },
{ "type": "Feature", "properties": { "OBJECTID": 141, "NAME": "Idlewild Elementary School", "ADDRESS": "10806 IDLEWILD RD SW", "CITY": "LAKEWOOD", "ZIP": "98498", "DISTRICT": "CLOVER PARK", "DIST_NO": "400", "TYPE": "ELEM", "PHONE": "(253) 583-5290", "WEBSITE": "https://idlewild.cloverpark.k12.wa.us/", "PRS_ID": null, "GRADE": "K-6", "X_COORD": 1131490.9699, "Y_COORD": 672194.6682 }, "geometry": { "type": "Point", "coordinates": [ -122.545920255999988, 47.158502759000044 ] } },
{ "type": "Feature", "properties": { "OBJECTID": 142, "NAME": "Imagination School", "ADDRESS": "14824 C ST S", "CITY": "TACOMA", "ZIP": "98444", "DISTRICT": "NOT APPLICABLE", "DIST_NO": " ", "TYPE": "ELEM", "PHONE": "(253) 535-2522", "WEBSITE": "http://www.imaginationschool.org/", "PRS_ID": null, "GRADE": "PRE-6", "X_COORD": 1157860.3844000001, "Y_COORD": 658367.3889 }, "geometry": { "type": "Point", "coordinates": [ -122.43859116699997, 47.122429550000049 ] } },
{ "type": "Feature", "properties": { "OBJECTID": 143, "NAME": "James Sales Elementary School", "ADDRESS": "1301 113TH ST S", "CITY": "TACOMA", "ZIP": "98444", "DISTRICT": "FRANKLIN PIERCE", "DIST_NO": "402", "TYPE": "ELEM", "PHONE": "(253) 298-4200", "WEBSITE": "https://jamessales.fpschools.org/", "PRS_ID": null, "GRADE": "K-8", "X_COORD": 1154973.5608000001, "Y_COORD": 670153.4989 }, "geometry": { "type": "Point", "coordinates": [ -122.451354930999969, 47.154539391000071 ] } },
{ "type": "Feature", "properties": { "OBJECTID": 144, "NAME": "Jefferson Elementary School", "ADDRESS": "4302 N 13TH ST", "CITY": "TACOMA", "ZIP": "98406", "DISTRICT": "TACOMA", "DIST_NO": "010", "TYPE": "ELEM", "PHONE": "(253) 571-4000", "WEBSITE": "https://jefferson.tacomaschools.org/", "PRS_ID": null, "GRADE": "K-5", "X_COORD": 1145032.5744999901, "Y_COORD": 709188.49519998999 }, "geometry": { "type": "Point", "coordinates": [ -122.495266629999946, 47.26084650100006 ] } },
{ "type": "Feature", "properties": { "OBJECTID": 145, "NAME": "Jennie Reed Elementary", "ADDRESS": "1802 S 36TH ST", "CITY": "TACOMA", "ZIP": "98418", "DISTRICT": "TACOMA", "DIST_NO": "010", "TYPE": "ELEM", "PHONE": "(253) 571-6400", "WEBSITE": "https://reed.tacomaschools.org/", "PRS_ID": null, "GRADE": "K-5", "X_COORD": 1153154.1275, "Y_COORD": 696150.38789998996 }, "geometry": { "type": "Point", "coordinates": [ -122.461263439, 47.225669982000056 ] } },
{ "type": "Feature", "properties": { "OBJECTID": 146, "NAME": "Kalles Junior High School", "ADDRESS": "501 7TH AVE SE", "CITY": "PUYALLUP", "ZIP": "98372", "DISTRICT": "PUYALLUP", "DIST_NO": "003", "TYPE": "JRHIGH", "PHONE": "(253) 841-8729", "WEBSITE": "https://kjh.puyallup.k12.wa.us/", "PRS_ID": null, "GRADE": "7-9", "X_COORD": 1195649.4778, "Y_COORD": 681077.92290001002 }, "geometry": { "type": "Point", "coordinates": [ -122.288902695, 47.187126824000075 ] } },
{ "type": "Feature", "properties": { "OBJECTID": 147, "NAME": "Kapowsin Elementary", "ADDRESS": "10412 264TH ST E", "CITY": "GRAHAM", "ZIP": "98338", "DISTRICT": "BETHEL", "DIST_NO": "403", "TYPE": "ELEM", "PHONE": "(253) 800-8600", "WEBSITE": "https://www.bethelsd.org/kes", "PRS_ID": null, "GRADE": "K-6", "X_COORD": 1193364.4712, "Y_COORD": 618578.544 }, "geometry": { "type": "Point", "coordinates": [ -122.292378775999964, 47.015667677000067 ] } },
{ "type": "Feature", "properties": { "OBJECTID": 148, "NAME": "Karshner Elementary School", "ADDRESS": "1328 8TH AVE NW", "CITY": "PUYALLUP", "ZIP": "98371", "DISTRICT": "PUYALLUP", "DIST_NO": "003", "TYPE": "ELEM", "PHONE": "(253) 841-8736", "WEBSITE": "https://kar.puyallup.k12.wa.us/", "PRS_ID": null, "GRADE": "K-6", "X_COORD": 1189924.0931, "Y_COORD": 684955.2348 }, "geometry": { "type": "Point", "coordinates": [ -122.312281021999979, 47.197396247000029 ] } },
{ "type": "Feature", "properties": { "OBJECTID": 149, "NAME": "Keithley Middle School", "ADDRESS": "12324 12TH AVE S", "CITY": "TACOMA", "ZIP": "98444", "DISTRICT": "FRANKLIN PIERCE", "DIST_NO": "402", "TYPE": "MID", "PHONE": "(253) 298-4300", "WEBSITE": "http://keithley.fpschools.org/", "PRS_ID": null, "GRADE": "6-8", "X_COORD": 1154679.7801000001, "Y_COORD": 666510.63060001004 }, "geometry": { "type": "Point", "coordinates": [ -122.452173025999969, 47.144534647000057 ] } },
{ "type": "Feature", "properties": { "OBJECTID": 150, "NAME": "Key Peninsula Middle School", "ADDRESS": "5510 KEY PENINSULA HWY NW", "CITY": "LAKEBAY", "ZIP": "98349", "DISTRICT": "PENINSULA", "DIST_NO": "401", "TYPE": "MID", "PHONE": "(253) 530-4200", "WEBSITE": "https://kpm.psd401.net/", "PRS_ID": null, "GRADE": "6-8", "X_COORD": 1079982.9872999899, "Y_COORD": 727567.3627000001 }, "geometry": { "type": "Point", "coordinates": [ -122.759252778999951, 47.306407027000034 ] } },
{ "type": "Feature", "properties": { "OBJECTID": 151, "NAME": "Kopachuck Middle School", "ADDRESS": "10414 56TH ST NW", "CITY": "GIG HARBOR", "ZIP": "98335", "DISTRICT": "PENINSULA", "DIST_NO": "401", "TYPE": "MID", "PHONE": "(253) 530-4100", "WEBSITE": "https://kms.psd401.net/", "PRS_ID": null, "GRADE": "6-8", "X_COORD": 1100385.1932999899, "Y_COORD": 726958.65270000999 }, "geometry": { "type": "Point", "coordinates": [ -122.676981062999971, 47.306311595000068 ] } },
{ "type": "Feature", "properties": { "OBJECTID": 152, "NAME": "Lake Louise Elementary School", "ADDRESS": "11014 HOLDEN RD SW", "CITY": "LAKEWOOD", "ZIP": "98498", "DISTRICT": "CLOVER PARK", "DIST_NO": "400", "TYPE": "ELEM", "PHONE": "(253) 583-5310", "WEBSITE": "https://lakelouise.cloverpark.k12.wa.us/", "PRS_ID": null, "GRADE": "K-6", "X_COORD": 1125530.6371, "Y_COORD": 671755.0677 }, "geometry": { "type": "Point", "coordinates": [ -122.569823951999979, 47.156871590000037 ] } },
{ "type": "Feature", "properties": { "OBJECTID": 153, "NAME": "Lake Tapps Elementary School", "ADDRESS": "1320 178TH AVE E", "CITY": "LAKE TAPPS", "ZIP": "98391", "DISTRICT": "DIERINGER", "DIST_NO": "343", "TYPE": "ELEM", "PHONE": "(253) 862-6600", "WEBSITE": "https://ltes.dieringer.wednet.edu/", "PRS_ID": null, "GRADE": "K-6", "X_COORD": 1220131.9061, "Y_COORD": 701999.1772 }, "geometry": { "type": "Point", "coordinates": [ -122.192267801999947, 47.245953665000059 ] } },
{ "type": "Feature", "properties": { "OBJECTID": 154, "NAME": "Lake Tapps Montessori", "ADDRESS": "4118 WEST TAPPS DR E", "CITY": "LAKE TAPPS", "ZIP": "98391", "DISTRICT": "NOT APPLICABLE", "DIST_NO": " ", "TYPE": "PRIVATE", "PHONE": "(253) 862-6556", "WEBSITE": "http://laketappsmontessoripreschool.com/", "PRS_ID": null, "GRADE": "K-1", "X_COORD": 1219626.7501000001, "Y_COORD": 692202.8052 }, "geometry": { "type": "Point", "coordinates": [ -122.193454440999972, 47.219071624000037 ] } },
{ "type": "Feature", "properties": { "OBJECTID": 155, "NAME": "Lakeland Hills Elementary School", "ADDRESS": "1020 EVERGREEN WAY SE", "CITY": "AUBURN", "ZIP": "98092", "DISTRICT": "AUBURN", "DIST_NO": "408", "TYPE": "ELEM", "PHONE": "(253) 876-7711", "WEBSITE": "https://www.auburn.wednet.edu/lakelandhills", "PRS_ID": null, "GRADE": "K-6", "X_COORD": 1214466.2088, "Y_COORD": 705133.00220001 }, "geometry": { "type": "Point", "coordinates": [ -122.21534784, 47.25420803600008 ] } },
{ "type": "Feature", "properties": { "OBJECTID": 156, "NAME": "Lakeridge Middle School", "ADDRESS": "5909 MYERS RD E", "CITY": "BONNEY LAKE", "ZIP": "98391", "DISTRICT": "SUMNER", "DIST_NO": "320", "TYPE": "MID", "PHONE": "(253) 891-5100", "WEBSITE": "https://www.sumnersd.org/lms", "PRS_ID": null, "GRADE": "7-9", "X_COORD": 1220410.3664, "Y_COORD": 686224.88789998996 }, "geometry": { "type": "Point", "coordinates": [ -122.189786453999943, 47.202731806000031 ] } },
{ "type": "Feature", "properties": { "OBJECTID": 157, "NAME": "Lakes High School", "ADDRESS": "10320 FARWEST DR SW", "CITY": "LAKEWOOD", "ZIP": "98498", "DISTRICT": "CLOVER PARK", "DIST_NO": "400", "TYPE": "HIGH", "PHONE": "(253) 583-5550", "WEBSITE": "https://lakes.cloverpark.k12.wa.us/", "PRS_ID": null, "GRADE": "9-12", "X_COORD": 1123844.5121, "Y_COORD": 673874.51980001002 }, "geometry": { "type": "Point", "coordinates": [ -122.576823271999956, 47.162559090000059 ] } },
{ "type": "Feature", "properties": { "OBJECTID": 158, "NAME": "Lakeview Hope Academy", "ADDRESS": "10501 47TH AVE SW", "CITY": "LAKEWOOD", "ZIP": "98499", "DISTRICT": "CLOVER PARK", "DIST_NO": "400", "TYPE": "ELEM", "PHONE": "(253) 583-5320", "WEBSITE": "https://lakeview.cloverpark.k12.wa.us/", "PRS_ID": null, "GRADE": "K-6", "X_COORD": 1143404.5396, "Y_COORD": 672951.25220001 }, "geometry": { "type": "Point", "coordinates": [ -122.498124557999972, 47.161413700000026 ] } },
{ "type": "Feature", "properties": { "OBJECTID": 159, "NAME": "Lakewood Lutheran School", "ADDRESS": "10202 112TH ST SW", "CITY": "LAKEWOOD", "ZIP": "98498", "DISTRICT": "NOT APPLICABLE", "DIST_NO": " ", "TYPE": "PRIVATE", "PHONE": "(253) 584-4615", "WEBSITE": "https://lakewoodlutheran.net/", "PRS_ID": null, "GRADE": "K-6", "X_COORD": 1124898.6428, "Y_COORD": 671249.41249998996 }, "geometry": { "type": "Point", "coordinates": [ -122.572309986, 47.155440193000061 ] } },
{ "type": "Feature", "properties": { "OBJECTID": 160, "NAME": "Larchmont Elementary School", "ADDRESS": "8601 E B ST", "CITY": "TACOMA", "ZIP": "98445", "DISTRICT": "TACOMA", "DIST_NO": "010", "TYPE": "ELEM", "PHONE": "(253) 571-6200", "WEBSITE": "https://larchmont.tacomaschools.org/", "PRS_ID": null, "GRADE": "K-5", "X_COORD": 1160700.0549000101, "Y_COORD": 678731.01970000996 }, "geometry": { "type": "Point", "coordinates": [ -122.429188281999984, 47.178435823000029 ] } },
{ "type": "Feature", "properties": { "OBJECTID": 161, "NAME": "Liberty Middle School", "ADDRESS": "7319 EUSTIS HUNT RD E", "CITY": "SPANAWAY", "ZIP": "98387", "DISTRICT": "BETHEL", "DIST_NO": "403", "TYPE": "MID", "PHONE": "(253) 800-6500", "WEBSITE": "https://www.bethelsd.org/lms", "PRS_ID": null, "GRADE": "7-9", "X_COORD": 1184685.6966000099, "Y_COORD": 638248.2648 }, "geometry": { "type": "Point", "coordinates": [ -122.328990815999987, 47.069038842000055 ] } },
{ "type": "Feature", "properties": { "OBJECTID": 162, "NAME": "Liberty Ridge Elementary School", "ADDRESS": "12202 209TH AVE CT E", "CITY": "BONNEY LAKE", "ZIP": "98391", "DISTRICT": "SUMNER", "DIST_NO": "320", "TYPE": "ELEM", "PHONE": "(253) 891-4800", "WEBSITE": "https://www.sumnersd.org/lre", "PRS_ID": null, "GRADE": "K-6", "X_COORD": 1229459.41869999, "Y_COORD": 664849.0223 }, "geometry": { "type": "Point", "coordinates": [ -122.15159022399996, 47.144663404000028 ] } },
{ "type": "Feature", "properties": { "OBJECTID": 163, "NAME": "Life Christian Academy", "ADDRESS": "1717 S UNION AVE", "CITY": "TACOMA", "ZIP": "98405", "DISTRICT": "NOT APPLICABLE", "DIST_NO": " ", "TYPE": "PRIVATE", "PHONE": "(253) 756-2199", "WEBSITE": "https://www.wherelifehappens.org/", "PRS_ID": null, "GRADE": "K-12", "X_COORD": 1148293.2994, "Y_COORD": 703246.5477 }, "geometry": { "type": "Point", "coordinates": [ -122.481537795999941, 47.244786229000056 ] } },
{ "type": "Feature", "properties": { "OBJECTID": 164, "NAME": "Lighthouse Christian School", "ADDRESS": "3008 36TH ST NW", "CITY": "GIG HARBOR", "ZIP": "98335", "DISTRICT": "NOT APPLICABLE", "DIST_NO": " ", "TYPE": "PRIVATE", "PHONE": "(253) 858-5962", "WEBSITE": "http://lcschool.org/", "PRS_ID": null, "GRADE": "K-6", "X_COORD": 1124105.47229999, "Y_COORD": 720289.66760001006 }, "geometry": { "type": "Point", "coordinates": [ -122.580695976999948, 47.289789451000047 ] } },
{ "type": "Feature", "properties": { "OBJECTID": 165, "NAME": "Lincoln High School", "ADDRESS": "701 S 37TH ST", "CITY": "TACOMA", "ZIP": "98418", "DISTRICT": "TACOMA", "DIST_NO": "010", "TYPE": "HIGH", "PHONE": "(253) 571-6700", "WEBSITE": "https://lincoln.tacomaschools.org/", "PRS_ID": null, "GRADE": "9-12", "X_COORD": 1157902.1721999899, "Y_COORD": 696620.6382 }, "geometry": { "type": "Point", "coordinates": [ -122.442206608999982, 47.227280943000039 ] } },
{ "type": "Feature", "properties": { "OBJECTID": 166, "NAME": "Lister Elementary", "ADDRESS": "2106 E 44TH ST", "CITY": "TACOMA", "ZIP": "98404", "DISTRICT": "TACOMA", "DIST_NO": "010", "TYPE": "ELEM", "PHONE": "(253) 571-2900", "WEBSITE": "https://lister.tacomaschools.org/", "PRS_ID": null, "GRADE": "K-5", "X_COORD": 1168080.2418, "Y_COORD": 692198.6169 }, "geometry": { "type": "Point", "coordinates": [ -122.400825244999965, 47.21584045700007 ] } },
{ "type": "Feature", "properties": { "OBJECTID": 167, "NAME": "Lochburn Middle School", "ADDRESS": "5431 STEILACOOM BLVD SW", "CITY": "LAKEWOOD", "ZIP": "98499", "DISTRICT": "CLOVER PARK", "DIST_NO": "400", "TYPE": "MID", "PHONE": "(253) 583-5420", "WEBSITE": "https://lochburn.cloverpark.k12.wa.us/", "PRS_ID": null, "GRADE": "6-8", "X_COORD": 1140110.0716000099, "Y_COORD": 679425.8576 }, "geometry": { "type": "Point", "coordinates": [ -122.512027328999977, 47.178930068000057 ] } },
{ "type": "Feature", "properties": { "OBJECTID": 168, "NAME": "Lowell Elementary", "ADDRESS": "810 MR DAHL DR", "CITY": "TACOMA", "ZIP": "98403", "DISTRICT": "TACOMA", "DIST_NO": "010", "TYPE": "ELEM", "PHONE": "(253) 571-7200", "WEBSITE": "https://lowell.tacomaschools.org/", "PRS_ID": null, "GRADE": "K-5", "X_COORD": 1152398.9205, "Y_COORD": 711403.5071 }, "geometry": { "type": "Point", "coordinates": [ -122.465831754999954, 47.267424419000065 ] } },
{ "type": "Feature", "properties": { "OBJECTID": 169, "NAME": "Manitou Park Elementary", "ADDRESS": "4330 S 66TH ST", "CITY": "TACOMA", "ZIP": "98409", "DISTRICT": "TACOMA", "DIST_NO": "010", "TYPE": "ELEM", "PHONE": "(253) 571-5300", "WEBSITE": "https://mp.tacomaschools.org/", "PRS_ID": null, "GRADE": "K-5", "X_COORD": 1144545.4375, "Y_COORD": 685848.8414 }, "geometry": { "type": "Point", "coordinates": [ -122.49485088299997, 47.196843274000059 ] } },
{ "type": "Feature", "properties": { "OBJECTID": 170, "NAME": "Mann Elementary School", "ADDRESS": "1002 S 52ND ST", "CITY": "TACOMA", "ZIP": "98408", "DISTRICT": "TACOMA", "DIST_NO": "010", "TYPE": "ELEM", "PHONE": "(253) 571-6300", "WEBSITE": "https://mann.tacomaschools.org/", "PRS_ID": null, "GRADE": "K-5", "X_COORD": 1156348.1812, "Y_COORD": 690036.6239 }, "geometry": { "type": "Point", "coordinates": [ -122.447804849999955, 47.209130033000065 ] } },
{ "type": "Feature", "properties": { "OBJECTID": 171, "NAME": "Maple Lawn Elementary School", "ADDRESS": "230 WOOD AVE", "CITY": "SUMNER", "ZIP": "98390", "DISTRICT": "SUMNER", "DIST_NO": "320", "TYPE": "ELEM", "PHONE": "(253) 891-4400", "WEBSITE": "https://www.sumnersd.org/mle", "PRS_ID": null, "GRADE": "K-6", "X_COORD": 1209662.4267, "Y_COORD": 683404.013 }, "geometry": { "type": "Point", "coordinates": [ -122.232764987999985, 47.194360327000027 ] } },
{ "type": "Feature", "properties": { "OBJECTID": 172, "NAME": "Maplewood Elementary School", "ADDRESS": "1110 W PIONEER", "CITY": "PUYALLUP", "ZIP": "98371", "DISTRICT": "PUYALLUP", "DIST_NO": "003", "TYPE": "ELEM", "PHONE": "(253) 841-8737", "WEBSITE": "https://map.puyallup.k12.wa.us/", "PRS_ID": null, "GRADE": "K-6", "X_COORD": 1190608.10950001, "Y_COORD": 681971.09280001 }, "geometry": { "type": "Point", "coordinates": [ -122.309254950999957, 47.189259776000029 ] } },
{ "type": "Feature", "properties": { "OBJECTID": 173, "NAME": "Mary Lyon Elementary School", "ADDRESS": "101 E 46TH ST", "CITY": "TACOMA", "ZIP": "98404", "DISTRICT": "TACOMA", "DIST_NO": "010", "TYPE": "ELEM", "PHONE": "(253) 571-4800", "WEBSITE": "https://lyon.tacomaschools.org/", "PRS_ID": null, "GRADE": "K-5", "X_COORD": 1160709.3671, "Y_COORD": 692378.145 }, "geometry": { "type": "Point", "coordinates": [ -122.430493808999984, 47.215841768000075 ] } },
{ "type": "Feature", "properties": { "OBJECTID": 174, "NAME": "Mason Middle School", "ADDRESS": "3901 N 28TH ST", "CITY": "TACOMA", "ZIP": "98407", "DISTRICT": "TACOMA", "DIST_NO": "010", "TYPE": "MID", "PHONE": "(253) 571-7000", "WEBSITE": "https://mason.tacomaschools.org/", "PRS_ID": null, "GRADE": "6-8", "X_COORD": 1146023.6419, "Y_COORD": 713770.8529000001 }, "geometry": { "type": "Point", "coordinates": [ -122.491742539999962, 47.273474341000053 ] } },
{ "type": "Feature", "properties": { "OBJECTID": 175, "NAME": "McCarver Elementary", "ADDRESS": "2111 S J ST", "CITY": "TACOMA", "ZIP": "98405", "DISTRICT": "TACOMA", "DIST_NO": "010", "TYPE": "ELEM", "PHONE": "(253) 571-4900", "WEBSITE": "https://mccarver.tacomaschools.org/", "PRS_ID": null, "GRADE": "K-5", "X_COORD": 1156853.079, "Y_COORD": 701502.90889999003 }, "geometry": { "type": "Point", "coordinates": [ -122.446912653999959, 47.240591584000072 ] } },
{ "type": "Feature", "properties": { "OBJECTID": 176, "NAME": "McKenna Elementary", "ADDRESS": "35120 SR 507 S", "CITY": "MCKENNA", "ZIP": "98558", "DISTRICT": "YELM", "DIST_NO": "002", "TYPE": "ELEM", "PHONE": "(360) 458-2400", "WEBSITE": "https://www.ycs.wednet.edu/mckenna", "PRS_ID": null, "GRADE": "K-6", "X_COORD": 1127175.4778, "Y_COORD": 592083.39740001003 }, "geometry": { "type": "Point", "coordinates": [ -122.554872892, 46.938616248000073 ] } },
{ "type": "Feature", "properties": { "OBJECTID": 177, "NAME": "Meeker Elementary School", "ADDRESS": "409 5TH ST SW", "CITY": "PUYALLUP", "ZIP": "98371", "DISTRICT": "PUYALLUP", "DIST_NO": "003", "TYPE": "ELEM", "PHONE": "(253) 841-8738", "WEBSITE": "https://mee.puyallup.k12.wa.us/", "PRS_ID": null, "GRADE": "K-6", "X_COORD": 1193471.2517, "Y_COORD": 681605.3726 }, "geometry": { "type": "Point", "coordinates": [ -122.297709076999979, 47.188436805000038 ] } },
{ "type": "Feature", "properties": { "OBJECTID": 178, "NAME": "Meeker Middle School", "ADDRESS": "4402 NASSAU AVE NE", "CITY": "TACOMA", "ZIP": "98422", "DISTRICT": "TACOMA", "DIST_NO": "010", "TYPE": "MID", "PHONE": "(253) 571-6500", "WEBSITE": "https://meeker.tacomaschools.org/", "PRS_ID": null, "GRADE": "6-8", "X_COORD": 1168416.1953, "Y_COORD": 720971.5324 }, "geometry": { "type": "Point", "coordinates": [ -122.402265769999985, 47.294725145000029 ] } },
{ "type": "Feature", "properties": { "OBJECTID": 179, "NAME": "Meriwether Elementary School", "ADDRESS": "10285 COMPASS AVE", "CITY": "JBLM LEWIS N", "ZIP": "98433", "DISTRICT": "CLOVER PARK", "DIST_NO": "400", "TYPE": "ELEM", "PHONE": "(253) 583-5200", "WEBSITE": "https://meriwether.cloverpark.k12.wa.us/", "PRS_ID": null, "GRADE": "K-6", "X_COORD": 1120396.5016000001, "Y_COORD": 664730.59550000995 }, "geometry": { "type": "Point", "coordinates": [ -122.589705439999989, 47.137247728000034 ] } },
{ "type": "Feature", "properties": { "OBJECTID": 180, "NAME": "Midland Elementary School", "ADDRESS": "2300 105TH ST E", "CITY": "TACOMA", "ZIP": "98445", "DISTRICT": "FRANKLIN PIERCE", "DIST_NO": "402", "TYPE": "ELEM", "PHONE": "(253) 298-4500", "WEBSITE": "http://midland.fpschools.org/", "PRS_ID": null, "GRADE": "K-6", "X_COORD": 1168081.3796000001, "Y_COORD": 671861.59 }, "geometry": { "type": "Point", "coordinates": [ -122.398850805999984, 47.160098203000075 ] } },
{ "type": "Feature", "properties": { "OBJECTID": 181, "NAME": "Minter Creek Elementary School", "ADDRESS": "12617 118TH AVE NW", "CITY": "GIG HARBOR", "ZIP": "98329", "DISTRICT": "PENINSULA", "DIST_NO": "401", "TYPE": "ELEM", "PHONE": "(253) 530-4300", "WEBSITE": "https://mes.psd401.net/", "PRS_ID": null, "GRADE": "K-6", "X_COORD": 1096983.67829999, "Y_COORD": 751303.04369999003 }, "geometry": { "type": "Point", "coordinates": [ -122.693414564999955, 47.372769378000044 ] } },
{ "type": "Feature", "properties": { "OBJECTID": 182, "NAME": "Montessori In Motion", "ADDRESS": "7323 27TH ST W", "CITY": "UNIVERSITY PLACE", "ZIP": "98466", "DISTRICT": "NOT APPLICABLE", "DIST_NO": " ", "TYPE": "PRIVATE", "PHONE": "(253) 565-3080", "WEBSITE": "https://www.montessoriinmotion.org/", "PRS_ID": null, "GRADE": "K-6", "X_COORD": 1134910.271, "Y_COORD": 700648.17460001004 }, "geometry": { "type": "Point", "coordinates": [ -122.53513116, 47.236730521000027 ] } },
{ "type": "Feature", "properties": { "OBJECTID": 183, "NAME": "Mount Tahoma High School", "ADDRESS": "4634 S 74TH ST", "CITY": "TACOMA", "ZIP": "98409", "DISTRICT": "TACOMA", "DIST_NO": "010", "TYPE": "HIGH", "PHONE": "(253) 571-3800", "WEBSITE": "https://mt.tacomaschools.org/", "PRS_ID": null, "GRADE": "9-12", "X_COORD": 1142809.3655000001, "Y_COORD": 682532.97840001003 }, "geometry": { "type": "Point", "coordinates": [ -122.501493555999957, 47.187634459000037 ] } },
{ "type": "Feature", "properties": { "OBJECTID": 184, "NAME": "Mountain Meadow Elementary School", "ADDRESS": "11812 MUNDY LOSS RD E", "CITY": "BUCKLEY", "ZIP": "98321", "DISTRICT": "WHITE RIVER", "DIST_NO": "416", "TYPE": "ELEM", "PHONE": "(360) 829-3356", "WEBSITE": "http://mm.whiteriver.wednet.edu/", "PRS_ID": null, "GRADE": "K-6", "X_COORD": 1252147.9497, "Y_COORD": 666321.2348 }, "geometry": { "type": "Point", "coordinates": [ -122.060549138999988, 47.149965573000031 ] } },
{ "type": "Feature", "properties": { "OBJECTID": 185, "NAME": "Mountain View Elementary School", "ADDRESS": "3411 119TH AVE E", "CITY": "EDGEWOOD", "ZIP": "98372", "DISTRICT": "PUYALLUP", "DIST_NO": "003", "TYPE": "ELEM", "PHONE": "(253) 841-8739", "WEBSITE": "https://mtv.puyallup.k12.wa.us/", "PRS_ID": null, "GRADE": "K-6", "X_COORD": 1200417.7261000001, "Y_COORD": 695059.4276000001 }, "geometry": { "type": "Point", "coordinates": [ -122.270993165999982, 47.225745212000049 ] } },
{ "type": "Feature", "properties": { "OBJECTID": 186, "NAME": "Mountain View Middle School", "ADDRESS": "10921 199TH AVE CT E", "CITY": "BONNEY LAKE", "ZIP": "98391", "DISTRICT": "SUMNER", "DIST_NO": "320", "TYPE": "MID", "PHONE": "(253) 891-5200", "WEBSITE": "https://www.sumnersd.org/mms", "PRS_ID": null, "GRADE": "7-9", "X_COORD": 1226749.973, "Y_COORD": 669237.96340001002 }, "geometry": { "type": "Point", "coordinates": [ -122.162847756999952, 47.156538105000038 ] } },
{ "type": "Feature", "properties": { "OBJECTID": 187, "NAME": "Naches Trail Elementary School", "ADDRESS": "15305 WALLER RD E", "CITY": "TACOMA", "ZIP": "98446", "DISTRICT": "BETHEL", "DIST_NO": "403", "TYPE": "ELEM", "PHONE": "(253) 800-8700", "WEBSITE": "https://www.bethelsd.org/ntes", "PRS_ID": null, "GRADE": "K-6", "X_COORD": 1170549.51620001, "Y_COORD": 656311.1787 }, "geometry": { "type": "Point", "coordinates": [ -122.387436743999956, 47.117637222000042 ] } },
{ "type": "Feature", "properties": { "OBJECTID": 188, "NAME": "Narrows View Intermediate School", "ADDRESS": "7813 44TH ST W", "CITY": "UNIVERSITY PLACE", "ZIP": "98466", "DISTRICT": "UNIVERSITY PLACE", "DIST_NO": "083", "TYPE": "INTER", "PHONE": "(253) 566-5630", "WEBSITE": "https://nvi.upsd83.org/", "PRS_ID": null, "GRADE": "5-7", "X_COORD": 1133103.9567, "Y_COORD": 694230.0566 }, "geometry": { "type": "Point", "coordinates": [ -122.541731312999957, 47.219011978000026 ] } },
{ "type": "Feature", "properties": { "OBJECTID": 189, "NAME": "Nelson Elementary", "ADDRESS": "22109 108TH AVE E", "CITY": "GRAHAM", "ZIP": "98338", "DISTRICT": "BETHEL", "DIST_NO": "403", "TYPE": "ELEM", "PHONE": "(253) 800-6400", "WEBSITE": "https://www.bethelsd.org/nes", "PRS_ID": null, "GRADE": "PRE-6", "X_COORD": 1195378.3748000001, "Y_COORD": 632810.37 }, "geometry": { "type": "Point", "coordinates": [ -122.28559863299995, 47.054804604000026 ] } },
{ "type": "Feature", "properties": { "OBJECTID": 190, "NAME": "North Star Elementary School", "ADDRESS": "7719 224TH ST E", "CITY": "GRAHAM", "ZIP": "98338", "DISTRICT": "BETHEL", "DIST_NO": "403", "TYPE": "ELEM", "PHONE": "(253) 800-8800", "WEBSITE": "https://www.bethelsd.org/nses", "PRS_ID": null, "GRADE": "K-6", "X_COORD": 1184788.8744000001, "Y_COORD": 633184.5403 }, "geometry": { "type": "Point", "coordinates": [ -122.32810595899997, 47.055165203000058 ] } },
{ "type": "Feature", "properties": { "OBJECTID": 191, "NAME": "North Tapps Middle School", "ADDRESS": "20029 12TH ST E", "CITY": "LAKE TAPPS", "ZIP": "98391", "DISTRICT": "DIERINGER", "DIST_NO": "343", "TYPE": "MID", "PHONE": "(253) 862-2776", "WEBSITE": "https://ntms.dieringer.wednet.edu/", "PRS_ID": null, "GRADE": "6-8", "X_COORD": 1227972.4185000099, "Y_COORD": 702813.78049998998 }, "geometry": { "type": "Point", "coordinates": [ -122.16077661199995, 47.248643392000076 ] } },
{ "type": "Feature", "properties": { "OBJECTID": 192, "NAME": "Northeast Tacoma Elementary School", "ADDRESS": "5412 29TH ST NE", "CITY": "TACOMA", "ZIP": "98422", "DISTRICT": "TACOMA", "DIST_NO": "010", "TYPE": "ELEM", "PHONE": "(253) 571-6933", "WEBSITE": "https://nt.tacomaschools.org/", "PRS_ID": null, "GRADE": "K-5", "X_COORD": 1175320.0202, "Y_COORD": 716101.0044 }, "geometry": { "type": "Point", "coordinates": [ -122.373986112999944, 47.281828873000052 ] } },
{ "type": "Feature", "properties": { "OBJECTID": 193, "NAME": "Northwest Christian School", "ADDRESS": "904 SHAW RD", "CITY": "PUYALLUP", "ZIP": "98372", "DISTRICT": "NOT APPLICABLE", "DIST_NO": " ", "TYPE": "PRIVATE", "PHONE": "(253) 845-5722", "WEBSITE": "https://www.nwchristianschool.org/", "PRS_ID": null, "GRADE": "K-6", "X_COORD": 1203154.6791000101, "Y_COORD": 679423.5763 }, "geometry": { "type": "Point", "coordinates": [ -122.258577708999951, 47.183054896000044 ] } },
{ "type": "Feature", "properties": { "OBJECTID": 194, "NAME": "Northwest School of Innovative Learning", "ADDRESS": "1819 E 72ND ST", "CITY": "TACOMA", "ZIP": "98404", "DISTRICT": "NOT APPLICABLE", "DIST_NO": " ", "TYPE": "PRIVATE", "PHONE": "(253) 272-8980", "WEBSITE": "https://www.northwestlearning.org/", "PRS_ID": null, "GRADE": "K-6", "X_COORD": 1166694.2172000001, "Y_COORD": 684464.78929999005 }, "geometry": { "type": "Point", "coordinates": [ -122.405649074999985, 47.194551061000027 ] } },
{ "type": "Feature", "properties": { "OBJECTID": 195, "NAME": "Northwood Elementary School", "ADDRESS": "9805 24TH ST E", "CITY": "EDGEWOOD", "ZIP": "98371", "DISTRICT": "PUYALLUP", "DIST_NO": "003", "TYPE": "ELEM", "PHONE": "(253) 841-8740", "WEBSITE": "https://nor.puyallup.k12.wa.us/", "PRS_ID": null, "GRADE": "K-6", "X_COORD": 1193818.858, "Y_COORD": 699722.0707 }, "geometry": { "type": "Point", "coordinates": [ -122.297972158, 47.238116142000081 ] } },
{ "type": "Feature", "properties": { "OBJECTID": 196, "NAME": "Oak Grove Elementary", "ADDRESS": "8805 STEILACOOM BLVD SW", "CITY": "LAKEWOOD", "ZIP": "98498", "DISTRICT": "CLOVER PARK", "DIST_NO": "400", "TYPE": "ELEM", "PHONE": "(253) 583-5415", "WEBSITE": null, "PRS_ID": null, "GRADE": "K-6", "X_COORD": 1128378.9502999899, "Y_COORD": 680616.12090000999 }, "geometry": { "type": "Point", "coordinates": [ -122.559308827999985, 47.181362372000081 ] } },
{ "type": "Feature", "properties": { "OBJECTID": 197, "NAME": "Oakbrook Elementary School", "ADDRESS": "7802 83RD AVE SW", "CITY": "LAKEWOOD", "ZIP": "98498", "DISTRICT": "CLOVER PARK", "DIST_NO": "400", "TYPE": "ELEM", "PHONE": "(253) 583-5330", "WEBSITE": "https://oakbrook.cloverpark.k12.wa.us/", "PRS_ID": null, "GRADE": "K-6", "X_COORD": 1131000.3892000001, "Y_COORD": 682184.6991 }, "geometry": { "type": "Point", "coordinates": [ -122.54893453699998, 47.18584867900006 ] } },
{ "type": "Feature", "properties": { "OBJECTID": 198, "NAME": "Oakland High School", "ADDRESS": "3319 S ADAMS ST", "CITY": "TACOMA", "ZIP": "98409", "DISTRICT": "TACOMA", "DIST_NO": "010", "TYPE": "HIGH", "PHONE": "(253) 571-5100", "WEBSITE": "https://oakland.tacomaschools.org/", "PRS_ID": null, "GRADE": "9-12", "X_COORD": 1147177.9269000001, "Y_COORD": 697898.61130001 }, "geometry": { "type": "Point", "coordinates": [ -122.48548502899996, 47.230051677000063 ] } },
{ "type": "Feature", "properties": { "OBJECTID": 199, "NAME": "Orting High School", "ADDRESS": "320 WASHINGTON AVE N", "CITY": "ORTING", "ZIP": "98360", "DISTRICT": "ORTING", "DIST_NO": "344", "TYPE": "HIGH", "PHONE": "(360) 893-2246", "WEBSITE": "https://www.ortingschools.org/Domain/11", "PRS_ID": null, "GRADE": "9-12", "X_COORD": 1214933.3135, "Y_COORD": 649998.9092 }, "geometry": { "type": "Point", "coordinates": [ -122.208658389999982, 47.103108538000072 ] } },
{ "type": "Feature", "properties": { "OBJECTID": 200, "NAME": "Orting Middle School", "ADDRESS": "111 WHITEHAWK BLVD NW", "CITY": "ORTING", "ZIP": "98360", "DISTRICT": "ORTING", "DIST_NO": "344", "TYPE": "MID", "PHONE": "(360) 893-3565", "WEBSITE": "https://www.ortingschools.org/Domain/10", "PRS_ID": null, "GRADE": "6-8", "X_COORD": 1212917.8766000001, "Y_COORD": 649987.44670000998 }, "geometry": { "type": "Point", "coordinates": [ -122.216748441, 47.102957138000079 ] } },
{ "type": "Feature", "properties": { "OBJECTID": 201, "NAME": "Orting Primary School", "ADDRESS": "316 WASHINGTON AVE N", "CITY": "ORTING", "ZIP": "98360", "DISTRICT": "ORTING", "DIST_NO": "344", "TYPE": "ELEM", "PHONE": "(360) 893-2248", "WEBSITE": "https://www.ortingschools.org/Domain/8", "PRS_ID": null, "GRADE": "K-6", "X_COORD": 1215115.62019999, "Y_COORD": 649206.1012 }, "geometry": { "type": "Point", "coordinates": [ -122.207857585999989, 47.100946147000059 ] } },
{ "type": "Feature", "properties": { "OBJECTID": 202, "NAME": "Our School", "ADDRESS": "301 OFERRELL DR", "CITY": "CARBONADO", "ZIP": "98323", "DISTRICT": "CARBONADO", "DIST_NO": "019", "TYPE": "ELEM", "PHONE": "(360) 829-0121", "WEBSITE": "http://www.carbonado.k12.wa.us/", "PRS_ID": null, "GRADE": "K-8", "X_COORD": 1253249.8564, "Y_COORD": 641143.4034 }, "geometry": { "type": "Point", "coordinates": [ -122.054127819999962, 47.081006284000068 ] } },
{ "type": "Feature", "properties": { "OBJECTID": 203, "NAME": "Pacific Lutheran University (PLU)", "ADDRESS": "12180 PARK AVE S", "CITY": "TACOMA", "ZIP": "98447", "DISTRICT": "NOT APPLICABLE", "DIST_NO": " ", "TYPE": "UNIVERSITY", "PHONE": "(253) 535-7411", "WEBSITE": "https://www.plu.edu/", "PRS_ID": null, "GRADE": "Higher Education", "X_COORD": 1156528.8096, "Y_COORD": 666279.94599998998 }, "geometry": { "type": "Point", "coordinates": [ -122.444721952999942, 47.144027575000052 ] } },
{ "type": "Feature", "properties": { "OBJECTID": 204, "NAME": "Park Lodge Elementary School", "ADDRESS": "6300 100TH ST SW", "CITY": "LAKEWOOD", "ZIP": "98499", "DISTRICT": "CLOVER PARK", "DIST_NO": "400", "TYPE": "ELEM", "PHONE": "(253) 583-5350", "WEBSITE": "https://parklodge.cloverpark.k12.wa.us/", "PRS_ID": null, "GRADE": "K-6", "X_COORD": 1137554.0518, "Y_COORD": 674726.44850000995 }, "geometry": { "type": "Point", "coordinates": [ -122.521817770999974, 47.165870551000069 ] } },
{ "type": "Feature", "properties": { "OBJECTID": 205, "NAME": "Parkland Lutheran School", "ADDRESS": "120 123RD ST S", "CITY": "TACOMA", "ZIP": "98444", "DISTRICT": "NOT APPLICABLE", "DIST_NO": " ", "TYPE": "PRIVATE", "PHONE": "(253) 537-5492", "WEBSITE": "https://parklandlutheran.org/", "PRS_ID": null, "GRADE": "K-12", "X_COORD": 1159586.9547999899, "Y_COORD": 666445.3607 }, "geometry": { "type": "Point", "coordinates": [ -122.432452631999979, 47.144687020000049 ] } },
{ "type": "Feature", "properties": { "OBJECTID": 206, "NAME": "Peninsula High School", "ADDRESS": "14105 PURDY DR NW", "CITY": "GIG HARBOR", "ZIP": "98332", "DISTRICT": "PENINSULA", "DIST_NO": "401", "TYPE": "HIGH", "PHONE": "(253) 530-4400", "WEBSITE": "https://phs.psd401.net/", "PRS_ID": null, "GRADE": "9-12", "X_COORD": 1114609.0106, "Y_COORD": 756115.9929 }, "geometry": { "type": "Point", "coordinates": [ -122.622832470999981, 47.387281139000038 ] } },
{ "type": "Feature", "properties": { "OBJECTID": 207, "NAME": "Pierce College at McChord", "ADDRESS": "852 LINCOLN BLVD SW", "CITY": "MCCHORD", "ZIP": "98439", "DISTRICT": "NOT APPLICABLE", "DIST_NO": " ", "TYPE": "COLLEGE", "PHONE": "(253) 964-6606", "WEBSITE": "https://www.pierce.ctc.edu/maps", "PRS_ID": null, "GRADE": "Higher Education", "X_COORD": 1142208.51440001, "Y_COORD": 658674.4051 }, "geometry": { "type": "Point", "coordinates": [ -122.501474729, 47.122199346000059 ] } },
{ "type": "Feature", "properties": { "OBJECTID": 208, "NAME": "Pierce College Fort Steilacoom", "ADDRESS": "9401 FARWEST DR SW", "CITY": "LAKEWOOD", "ZIP": "98498", "DISTRICT": "NOT APPLICABLE", "DIST_NO": " ", "TYPE": "COLLEGE", "PHONE": "(253) 964-6500", "WEBSITE": "https://www.pierce.ctc.edu/", "PRS_ID": null, "GRADE": "Higher Education", "X_COORD": 1125232.7094000001, "Y_COORD": 677359.6154 }, "geometry": { "type": "Point", "coordinates": [ -122.571612651999942, 47.172211101000073 ] } },
{ "type": "Feature", "properties": { "OBJECTID": 209, "NAME": "Pierce College Puyallup", "ADDRESS": "1601 39TH AVE SE", "CITY": "PUYALLUP", "ZIP": "98374", "DISTRICT": "NOT APPLICABLE", "DIST_NO": " ", "TYPE": "COLLEGE", "PHONE": "(253) 840-8400", "WEBSITE": "https://www.pierce.ctc.edu/", "PRS_ID": null, "GRADE": "Higher Education", "X_COORD": 1199233.03470001, "Y_COORD": 670618.32340001001 }, "geometry": { "type": "Point", "coordinates": [ -122.273548334999987, 47.158678509000026 ] } },
{ "type": "Feature", "properties": { "OBJECTID": 210, "NAME": "Pierce County Skills Center (PCSC)", "ADDRESS": "16117 CANYON RD E", "CITY": "PUYALLUP", "ZIP": "98375", "DISTRICT": "BETHEL", "DIST_NO": "403", "TYPE": "OTHER", "PHONE": "(253) 800-4800", "WEBSITE": "https://www.bethelsd.org/pcsc", "PRS_ID": null, "GRADE": "9-12", "X_COORD": 1178313.1776000001, "Y_COORD": 653370.27240001003 }, "geometry": { "type": "Point", "coordinates": [ -122.355984125999953, 47.110081200000081 ] } },
{ "type": "Feature", "properties": { "OBJECTID": 211, "NAME": "Pioneer Elementary School", "ADDRESS": "8502 SKANSIE AVE NW", "CITY": "GIG HARBOR", "ZIP": "98332", "DISTRICT": "PENINSULA", "DIST_NO": "401", "TYPE": "ELEM", "PHONE": "(253) 530-3500", "WEBSITE": "https://pie.psd401.net/", "PRS_ID": null, "GRADE": "K-6", "X_COORD": 1118241.3611000001, "Y_COORD": 737032.2227 }, "geometry": { "type": "Point", "coordinates": [ -122.606117899999958, 47.335247940000045 ] } },
{ "type": "Feature", "properties": { "OBJECTID": 212, "NAME": "Pioneer Middle School", "ADDRESS": "1750 BOBS HOLLOW LANE", "CITY": "DUPONT", "ZIP": "98327", "DISTRICT": "STEILACOOM", "DIST_NO": "001", "TYPE": "MID", "PHONE": "(253) 583-7200", "WEBSITE": "https://www.steilacoom.k12.wa.us/Domain/9", "PRS_ID": null, "GRADE": "6-8", "X_COORD": 1105537.7209000001, "Y_COORD": 651986.70100001001 }, "geometry": { "type": "Point", "coordinates": [ -122.647992193999983, 47.101225011000054 ] } },
{ "type": "Feature", "properties": { "OBJECTID": 213, "NAME": "Pioneer Valley Elementary School", "ADDRESS": "7315 EUSTIS HUNT RD", "CITY": "SPANAWAY", "ZIP": "98387", "DISTRICT": "BETHEL", "DIST_NO": "403", "TYPE": "ELEM", "PHONE": "(253) 800-8900", "WEBSITE": "https://www.bethelsd.org/pves", "PRS_ID": null, "GRADE": "PRE-6", "X_COORD": 1184799.9969000099, "Y_COORD": 638864.1749 }, "geometry": { "type": "Point", "coordinates": [ -122.328589551, 47.070734376000075 ] } },
{ "type": "Feature", "properties": { "OBJECTID": 214, "NAME": "Point Defiance Elementary", "ADDRESS": "4330 N VISSCHER ST", "CITY": "TACOMA", "ZIP": "98407", "DISTRICT": "TACOMA", "DIST_NO": "010", "TYPE": "ELEM", "PHONE": "(253) 571-6900", "WEBSITE": "https://pd.tacomaschools.org/", "PRS_ID": null, "GRADE": "K-5", "X_COORD": 1139543.4114000101, "Y_COORD": 719440.0051 }, "geometry": { "type": "Point", "coordinates": [ -122.51842219599996, 47.288560447000066 ] } },
{ "type": "Feature", "properties": { "OBJECTID": 215, "NAME": "Pope Elementary School", "ADDRESS": "15102 122ND AVE E", "CITY": "PUYALLUP", "ZIP": "98374", "DISTRICT": "PUYALLUP", "DIST_NO": "003", "TYPE": "ELEM", "PHONE": "(253) 841-8755", "WEBSITE": "https://pop.puyallup.k12.wa.us/", "PRS_ID": null, "GRADE": "K-6", "X_COORD": 1200317.35690001, "Y_COORD": 656129.9288 }, "geometry": { "type": "Point", "coordinates": [ -122.267885649999982, 47.119031396000025 ] } },
{ "type": "Feature", "properties": { "OBJECTID": 216, "NAME": "Ptarmigan Ridge Elementary", "ADDRESS": "805 OLD PIONEER WAY NW", "CITY": "ORTING", "ZIP": "98360", "DISTRICT": "ORTING", "DIST_NO": "344", "TYPE": "INTER", "PHONE": "(360) 893-0595", "WEBSITE": "https://www.ortingschools.org/Domain/9", "PRS_ID": null, "GRADE": "3-5", "X_COORD": 1212181.9307, "Y_COORD": 650697.046 }, "geometry": { "type": "Point", "coordinates": [ -122.219765035999956, 47.10485830600004 ] } },
{ "type": "Feature", "properties": { "OBJECTID": 217, "NAME": "Puget Sound Christian School", "ADDRESS": "1740 S 84TH ST", "CITY": "TACOMA", "ZIP": "98444", "DISTRICT": "NOT APPLICABLE", "DIST_NO": " ", "TYPE": "PRIVATE", "PHONE": "(253) 537-6870", "WEBSITE": "http://www.pschristianschool.com", "PRS_ID": null, "GRADE": "PRE", "X_COORD": 1153089.4347000001, "Y_COORD": 679677.41590001003 }, "geometry": { "type": "Point", "coordinates": [ -122.45987656899996, 47.180515439000033 ] } },
{ "type": "Feature", "properties": { "OBJECTID": 218, "NAME": "Purdy Elementary School", "ADDRESS": "13815 62ND AVE NW", "CITY": "GIG HARBOR", "ZIP": "98332", "DISTRICT": "PENINSULA", "DIST_NO": "401", "TYPE": "ELEM", "PHONE": "(253) 530-4600", "WEBSITE": "https://pes.psd401.net/", "PRS_ID": null, "GRADE": "K-6", "X_COORD": 1115627.7486000101, "Y_COORD": 754813.3263 }, "geometry": { "type": "Point", "coordinates": [ -122.618580294999958, 47.383786235000059 ] } },
{ "type": "Feature", "properties": { "OBJECTID": 219, "NAME": "Puyallup Digital Learning", "ADDRESS": "1501 39TH AVE SW", "CITY": "PUYALLUP", "ZIP": "988373", "DISTRICT": "PUYALLUP", "DIST_NO": "003", "TYPE": "OTHER", "PHONE": "(253) 841-8630", "WEBSITE": "https://pdl.puyallup.k12.wa.us/cms/One.aspx", "PRS_ID": null, "GRADE": null, "X_COORD": 1189604.1059000001, "Y_COORD": 669795.9595 }, "geometry": { "type": "Point", "coordinates": [ -122.312167000999978, 47.155824353000071 ] } },
{ "type": "Feature", "properties": { "OBJECTID": 220, "NAME": "Puyallup High School", "ADDRESS": "105 7TH ST SW", "CITY": "PUYALLUP", "ZIP": "98371", "DISTRICT": "PUYALLUP", "DIST_NO": "003", "TYPE": "OTHER", "PHONE": "(253) 841-8711", "WEBSITE": "https://phs.puyallup.k12.wa.us/", "PRS_ID": null, "GRADE": "", "X_COORD": 1192555.5981999901, "Y_COORD": 682838.91760001006 }, "geometry": { "type": "Point", "coordinates": [ -122.301504049999949, 47.191760689000034 ] } },
{ "type": "Feature", "properties": { "OBJECTID": 221, "NAME": "Rainier Elementary School", "ADDRESS": "2410 STRYKER AVE", "CITY": "JBLM", "ZIP": "98433", "DISTRICT": "CLOVER PARK", "DIST_NO": "400", "TYPE": "ELEM", "PHONE": "(253) 583-5220", "WEBSITE": "https://rainier.cloverpark.k12.wa.us/", "PRS_ID": null, "GRADE": "K-6", "X_COORD": 1116373.3486, "Y_COORD": 645506.61139999004 }, "geometry": { "type": "Point", "coordinates": [ -122.603804897999964, 47.084264898000072 ] } },
{ "type": "Feature", "properties": { "OBJECTID": 222, "NAME": "Ridgecrest Elementary School", "ADDRESS": "12616 SHAW RD E", "CITY": "PUYALLUP", "ZIP": "98374", "DISTRICT": "PUYALLUP", "DIST_NO": "003", "TYPE": "ELEM", "PHONE": "(253) 841-8753", "WEBSITE": "https://rid.puyallup.k12.wa.us/", "PRS_ID": null, "GRADE": "K-6", "X_COORD": 1203087.3937, "Y_COORD": 663953.60959998996 }, "geometry": { "type": "Point", "coordinates": [ -122.25746219399997, 47.140646555000046 ] } },
{ "type": "Feature", "properties": { "OBJECTID": 223, "NAME": "Rocky Ridge Elementary School", "ADDRESS": "6514 260TH ST E", "CITY": "GRAHAM", "ZIP": "98338", "DISTRICT": "BETHEL", "DIST_NO": "403", "TYPE": "ELEM", "PHONE": "(253) 800-5000", "WEBSITE": "https://www.bethelsd.org/rres", "PRS_ID": null, "GRADE": "K-6", "X_COORD": 1180134.7027, "Y_COORD": 620285.3063000001 }, "geometry": { "type": "Point", "coordinates": [ -122.345562258999962, 47.019509722000066 ] } },
{ "type": "Feature", "properties": { "OBJECTID": 224, "NAME": "Rogers High School", "ADDRESS": "12801 86TH AVE E", "CITY": "PUYALLUP", "ZIP": "98373", "DISTRICT": "PUYALLUP", "DIST_NO": "003", "TYPE": "HIGH", "PHONE": "(253) 841-8717", "WEBSITE": "https://rhs.puyallup.k12.wa.us/", "PRS_ID": null, "GRADE": "9-12", "X_COORD": 1189482.2531999899, "Y_COORD": 663448.3486 }, "geometry": { "type": "Point", "coordinates": [ -122.312070562999963, 47.138417626000034 ] } },
{ "type": "Feature", "properties": { "OBJECTID": 225, "NAME": "Roosevelt Elementary School", "ADDRESS": "3550 E ROOSEVELT AVE", "CITY": "TACOMA", "ZIP": "98404", "DISTRICT": "TACOMA", "DIST_NO": "010", "TYPE": "ELEM", "PHONE": "(253) 571-4400", "WEBSITE": "https://roosevelt.tacomaschools.org/", "PRS_ID": null, "GRADE": "K-5", "X_COORD": 1168435.0809, "Y_COORD": 696629.50300001004 }, "geometry": { "type": "Point", "coordinates": [ -122.399827217, 47.228008482000064 ] } },
{ "type": "Feature", "properties": { "OBJECTID": 226, "NAME": "Roy Elementary School", "ADDRESS": "340 PETERSON ST S", "CITY": "ROY", "ZIP": "98580", "DISTRICT": "BETHEL", "DIST_NO": "403", "TYPE": "ELEM", "PHONE": "(253) 800-5100", "WEBSITE": "https://www.bethelsd.org/res", "PRS_ID": null, "GRADE": "K-6", "X_COORD": 1131026.7515, "Y_COORD": 614848.5226 }, "geometry": { "type": "Point", "coordinates": [ -122.541819256999986, 47.001289513000074 ] } },
{ "type": "Feature", "properties": { "OBJECTID": 227, "NAME": "Saint Mary's Academy", "ADDRESS": "757 138TH ST S", "CITY": "TACOMA", "ZIP": "98444", "DISTRICT": "NOT APPLICABLE", "DIST_NO": " ", "TYPE": "PRIVATE", "PHONE": "(253) 537-6281", "WEBSITE": "https://community.plu.edu/~sanchemd/St%20Marys%20Academy.html", "PRS_ID": null, "GRADE": "K-8", "X_COORD": 1156800.6602, "Y_COORD": 661786.04279999004 }, "geometry": { "type": "Point", "coordinates": [ -122.443184990999953, 47.131728428000031 ] } },
{ "type": "Feature", "properties": { "OBJECTID": 228, "NAME": "Saltar's Point Elementary", "ADDRESS": "908 3RD ST", "CITY": "STEILACOOM", "ZIP": "98388", "DISTRICT": "STEILACOOM", "DIST_NO": "001", "TYPE": "ELEM", "PHONE": "(253) 983-2600", "WEBSITE": "https://www.steilacoom.k12.wa.us/Domain/12", "PRS_ID": null, "GRADE": "K-6", "X_COORD": 1115720.71969999, "Y_COORD": 674331.0469 }, "geometry": { "type": "Point", "coordinates": [ -122.609517736999976, 47.163219327000036 ] } },
{ "type": "Feature", "properties": { "OBJECTID": 229, "NAME": "SAMi - Science and Math Institute", "ADDRESS": "5502 FIVE MILE DR", "CITY": "TACOMA", "ZIP": "98407", "DISTRICT": "TACOMA", "DIST_NO": "010", "TYPE": "HIGH", "PHONE": "(253) 571-2300", "WEBSITE": "https://sami.tacomaschools.org/", "PRS_ID": null, "GRADE": "9-12", "X_COORD": 1141513.69750001, "Y_COORD": 724253.82250001002 }, "geometry": { "type": "Point", "coordinates": [ -122.510980239, 47.301891725000075 ] } },
{ "type": "Feature", "properties": { "OBJECTID": 230, "NAME": "Seabury Lower School", "ADDRESS": "1801 53RD ST NE", "CITY": "TACOMA", "ZIP": "98422", "DISTRICT": "NOT APPLICABLE", "DIST_NO": " ", "TYPE": "PRIVATE", "PHONE": "(253) 952-3111", "WEBSITE": "https://www.seabury.org/", "PRS_ID": null, "GRADE": "K-8", "X_COORD": 1163324.6289999899, "Y_COORD": 724837.6707 }, "geometry": { "type": "Point", "coordinates": [ -122.423157642999968, 47.30498299900006 ] } },
{ "type": "Feature", "properties": { "OBJECTID": 231, "NAME": "Seabury Middle School", "ADDRESS": "925 COURT C", "CITY": "TACOMA", "ZIP": "98402", "DISTRICT": "NOT APPLICABLE", "DIST_NO": " ", "TYPE": "PRIVATE", "PHONE": "(253) 604-0042", "WEBSITE": "https://www.seabury.org/", "PRS_ID": null, "GRADE": "K-8", "X_COORD": 1158503.8707000001, "Y_COORD": 706480.06559998996 }, "geometry": { "type": "Point", "coordinates": [ -122.440761917999964, 47.254344654000079 ] } },
{ "type": "Feature", "properties": { "OBJECTID": 232, "NAME": "Shaw Road Elementary School", "ADDRESS": "1106 SHAW RD", "CITY": "PUYALLUP", "ZIP": "98372", "DISTRICT": "PUYALLUP", "DIST_NO": "003", "TYPE": "ELEM", "PHONE": "(253) 841-8675", "WEBSITE": "https://sha.puyallup.k12.wa.us/", "PRS_ID": null, "GRADE": "K-6", "X_COORD": 1203228.70640001, "Y_COORD": 678900.6173 }, "geometry": { "type": "Point", "coordinates": [ -122.258233209999958, 47.181625964000034 ] } },
{ "type": "Feature", "properties": { "OBJECTID": 233, "NAME": "Sheridan Elementary", "ADDRESS": "5317 MCKINLEY AVE", "CITY": "TACOMA", "ZIP": "98404", "DISTRICT": "TACOMA", "DIST_NO": "010", "TYPE": "ELEM", "PHONE": "(253) 571-5900", "WEBSITE": "https://sheridan.tacomaschools.org/", "PRS_ID": null, "GRADE": "K-5", "X_COORD": 1163268.2599, "Y_COORD": 689827.44949998998 }, "geometry": { "type": "Point", "coordinates": [ -122.419950286999949, 47.209021834000055 ] } },
{ "type": "Feature", "properties": { "OBJECTID": 234, "NAME": "Sherman Elementary School", "ADDRESS": "4415 N 38TH ST", "CITY": "TACOMA", "ZIP": "98407", "DISTRICT": "TACOMA", "DIST_NO": "010", "TYPE": "ELEM", "PHONE": "(253) 571-5488", "WEBSITE": "https://sherman.tacomaschools.org/", "PRS_ID": null, "GRADE": "K-5", "X_COORD": 1144681.3395, "Y_COORD": 717646.689 }, "geometry": { "type": "Point", "coordinates": [ -122.497543262999955, 47.284004002000074 ] } },
{ "type": "Feature", "properties": { "OBJECTID": 235, "NAME": "Shining Mountain Elementary School", "ADDRESS": "21615 38TH AVE E", "CITY": "SPANAWAY", "ZIP": "98387", "DISTRICT": "BETHEL", "DIST_NO": "403", "TYPE": "ELEM", "PHONE": "(253) 800-5200", "WEBSITE": "https://www.bethelsd.org/smes", "PRS_ID": null, "GRADE": "PRE-6", "X_COORD": 1172551.68009999, "Y_COORD": 635218.4586 }, "geometry": { "type": "Point", "coordinates": [ -122.37738090199997, 47.059952309000039 ] } },
{ "type": "Feature", "properties": { "OBJECTID": 236, "NAME": "Silas High School", "ADDRESS": "1202 N ORCHARD ST", "CITY": "TACOMA", "ZIP": "98406", "DISTRICT": "TACOMA", "DIST_NO": "010", "TYPE": "HIGH", "PHONE": "(253) 571-6000", "WEBSITE": "https://silas.tacomaschools.org/", "PRS_ID": null, "GRADE": "9-12", "X_COORD": 1141563.8202, "Y_COORD": 709448.97040001 }, "geometry": { "type": "Point", "coordinates": [ -122.509258484999975, 47.261319017000062 ] } },
{ "type": "Feature", "properties": { "OBJECTID": 237, "NAME": "Skyline Elementary School", "ADDRESS": "2301 N MILDRED ST", "CITY": "TACOMA", "ZIP": "98406", "DISTRICT": "TACOMA", "DIST_NO": "010", "TYPE": "ELEM", "PHONE": "(253) 571-7800", "WEBSITE": "https://skyline.tacomaschools.org/", "PRS_ID": null, "GRADE": "K-5", "X_COORD": 1137565.8176, "Y_COORD": 712692.1003 }, "geometry": { "type": "Point", "coordinates": [ -122.525689815999954, 47.269927290000055 ] } },
{ "type": "Feature", "properties": { "OBJECTID": 238, "NAME": "South Sound Christian Academy", "ADDRESS": "2310 S 66TH ST", "CITY": "TACOMA", "ZIP": "98409", "DISTRICT": "NOT APPLICABLE", "DIST_NO": " ", "TYPE": "PRIVATE", "PHONE": "(253) 475-7226", "WEBSITE": "http://www.southsoundchristian.org/", "PRS_ID": null, "GRADE": "K-6", "X_COORD": 1151560.5021000099, "Y_COORD": 686218.7641 }, "geometry": { "type": "Point", "coordinates": [ -122.466678706999971, 47.198340115000065 ] } },
{ "type": "Feature", "properties": { "OBJECTID": 239, "NAME": "Spanaway Elementary School", "ADDRESS": "412 165TH ST S", "CITY": "SPANAWAY", "ZIP": "98387", "DISTRICT": "BETHEL", "DIST_NO": "403", "TYPE": "ELEM", "PHONE": "(253) 800-5300", "WEBSITE": "https://www.bethelsd.org/ses", "PRS_ID": null, "GRADE": "PRE-6", "X_COORD": 1157874.3763999899, "Y_COORD": 652787.147 }, "geometry": { "type": "Point", "coordinates": [ -122.437984291999953, 47.107135241000037 ] } },
{ "type": "Feature", "properties": { "OBJECTID": 240, "NAME": "Spanaway Lake High School", "ADDRESS": "1305 168TH ST E", "CITY": "SPANAWAY", "ZIP": "98387", "DISTRICT": "BETHEL", "DIST_NO": "403", "TYPE": "HIGH", "PHONE": "(253) 800-5600", "WEBSITE": "https://www.bethelsd.org/slhs", "PRS_ID": null, "GRADE": "9-12", "X_COORD": 1164042.7482, "Y_COORD": 652290.26459998998 }, "geometry": { "type": "Point", "coordinates": [ -122.413172287999942, 47.106186128000047 ] } },
{ "type": "Feature", "properties": { "OBJECTID": 241, "NAME": "Spanaway Middle School", "ADDRESS": "15701 B ST E", "CITY": "TACOMA", "ZIP": "98445", "DISTRICT": "BETHEL", "DIST_NO": "403", "TYPE": "MID", "PHONE": "(253) 800-5400", "WEBSITE": "https://www.bethelsd.org/sms", "PRS_ID": null, "GRADE": "7-9", "X_COORD": 1160504.3723, "Y_COORD": 655484.1027 }, "geometry": { "type": "Point", "coordinates": [ -122.427690590999987, 47.114704208000035 ] } },
{ "type": "Feature", "properties": { "OBJECTID": 242, "NAME": "Spinning Elementary School", "ADDRESS": "1306 E PIONEER", "CITY": "PUYALLUP", "ZIP": "98372", "DISTRICT": "PUYALLUP", "DIST_NO": "003", "TYPE": "ELEM", "PHONE": "(253) 841-8742", "WEBSITE": "https://spi.puyallup.k12.wa.us/", "PRS_ID": null, "GRADE": "K-6", "X_COORD": 1198682.118, "Y_COORD": 681343.6427 }, "geometry": { "type": "Point", "coordinates": [ -122.276733290999971, 47.188043085000061 ] } },
{ "type": "Feature", "properties": { "OBJECTID": 243, "NAME": "St Charles Borromeo Catholic School", "ADDRESS": "7112 S 12TH ST", "CITY": "TACOMA", "ZIP": "98465", "DISTRICT": "NOT APPLICABLE", "DIST_NO": " ", "TYPE": "PRIVATE", "PHONE": "(253) 564-5185", "WEBSITE": "https://www.stcharlesb.org/", "PRS_ID": null, "GRADE": "K-6", "X_COORD": 1135578.3041999899, "Y_COORD": 704948.11830000998 }, "geometry": { "type": "Point", "coordinates": [ -122.532888962999948, 47.248562845000038 ] } },
{ "type": "Feature", "properties": { "OBJECTID": 244, "NAME": "St Frances Cabrini School", "ADDRESS": "5621 108TH ST SW", "CITY": "LAKEWOOD", "ZIP": "98499", "DISTRICT": "NOT APPLICABLE", "DIST_NO": " ", "TYPE": "PRIVATE", "PHONE": "(253) 584-3850", "WEBSITE": "https://www.cabrinischool.org/", "PRS_ID": null, "GRADE": "K-6", "X_COORD": 1140050.75849999, "Y_COORD": 672641.98280001001 }, "geometry": { "type": "Point", "coordinates": [ -122.51157014599994, 47.160332340000025 ] } },
{ "type": "Feature", "properties": { "OBJECTID": 245, "NAME": "St Nicholas Catholic School", "ADDRESS": "3555 EDWARDS DR", "CITY": "GIG HARBOR", "ZIP": "98335", "DISTRICT": "NOT APPLICABLE", "DIST_NO": " ", "TYPE": "PRIVATE", "PHONE": "(253) 858-7632", "WEBSITE": "https://www.stnicholascs.org/", "PRS_ID": null, "GRADE": "K-6", "X_COORD": 1123152.2098000001, "Y_COORD": 734497.46600001003 }, "geometry": { "type": "Point", "coordinates": [ -122.586049668999976, 47.328658911000048 ] } },
{ "type": "Feature", "properties": { "OBJECTID": 246, "NAME": "St Patrick Catholic School", "ADDRESS": "1112 N G ST", "CITY": "TACOMA", "ZIP": "98403", "DISTRICT": "NOT APPLICABLE", "DIST_NO": " ", "TYPE": "PRIVATE", "PHONE": "(253) 272-2297", "WEBSITE": "https://www.saintpats.org/school/", "PRS_ID": null, "GRADE": "K-8", "X_COORD": 1152879.9299000101, "Y_COORD": 711585.94310001004 }, "geometry": { "type": "Point", "coordinates": [ -122.463913248999972, 47.267957286000069 ] } },
{ "type": "Feature", "properties": { "OBJECTID": 247, "NAME": "Stadium High School", "ADDRESS": "111 N E ST", "CITY": "TACOMA", "ZIP": "98403", "DISTRICT": "TACOMA", "DIST_NO": "010", "TYPE": "HIGH", "PHONE": "(253) 571-3100", "WEBSITE": "https://stadium.tacomaschools.org/", "PRS_ID": null, "GRADE": "9-12", "X_COORD": 1156548.9687000101, "Y_COORD": 711013.0423 }, "geometry": { "type": "Point", "coordinates": [ -122.449082516999965, 47.266636567000035 ] } },
{ "type": "Feature", "properties": { "OBJECTID": 248, "NAME": "Stafford Elementary", "ADDRESS": "1615 S 92ND ST\r\n", "CITY": "TACOMA", "ZIP": "98444", "DISTRICT": "TACOMA", "DIST_NO": "010", "TYPE": "ELEM", "PHONE": "(253) 571-4300", "WEBSITE": "https://stafford.tacomaschools.org/", "PRS_ID": null, "GRADE": "K-5", "X_COORD": 1154007.0889000001, "Y_COORD": 677426.0588 }, "geometry": { "type": "Point", "coordinates": [ -122.455963087999976, 47.174407165000048 ] } },
{ "type": "Feature", "properties": { "OBJECTID": 249, "NAME": "Stahl Junior High School", "ADDRESS": "9610 168TH ST E", "CITY": "PUYALLUP", "ZIP": "98375", "DISTRICT": "PUYALLUP", "DIST_NO": "003", "TYPE": "JRHIGH", "PHONE": "(253) 840-8881", "WEBSITE": "https://sjh.puyallup.k12.wa.us/", "PRS_ID": null, "GRADE": "7-9", "X_COORD": 1192078.8065, "Y_COORD": 649888.43629999005 }, "geometry": { "type": "Point", "coordinates": [ -122.300396457999966, 47.101411972000051 ] } },
{ "type": "Feature", "properties": { "OBJECTID": 250, "NAME": "Stanley Elementary School", "ADDRESS": "1712 S 17TH ST", "CITY": "TACOMA", "ZIP": "98405", "DISTRICT": "TACOMA", "DIST_NO": "010", "TYPE": "ELEM", "PHONE": "(253) 571-4500", "WEBSITE": "https://stanley.tacomaschools.org/", "PRS_ID": null, "GRADE": "K-5", "X_COORD": 1153642.4538999901, "Y_COORD": 702946.81479999004 }, "geometry": { "type": "Point", "coordinates": [ -122.459978322999973, 47.244331104000025 ] } },
{ "type": "Feature", "properties": { "OBJECTID": 251, "NAME": "Steilacoom High School", "ADDRESS": "54 SENTINEL DR", "CITY": "STEILACOOM", "ZIP": "98388", "DISTRICT": "STEILACOOM", "DIST_NO": "001", "TYPE": "HIGH", "PHONE": "(253) 983-2300", "WEBSITE": "https://www.steilacoom.k12.wa.us/Domain/8", "PRS_ID": null, "GRADE": "9-12", "X_COORD": 1123897.0765, "Y_COORD": 680020.34810000996 }, "geometry": { "type": "Point", "coordinates": [ -122.577262604999987, 47.179407307000076 ] } },
{ "type": "Feature", "properties": { "OBJECTID": 252, "NAME": "Stewart Elementary School", "ADDRESS": "426 4TH AVE NE", "CITY": "PUYALLUP", "ZIP": "98372", "DISTRICT": "PUYALLUP", "DIST_NO": "003", "TYPE": "ELEM", "PHONE": "(253) 841-8743", "WEBSITE": "https://ste.puyallup.k12.wa.us/", "PRS_ID": null, "GRADE": "K-6", "X_COORD": 1195754.8415000001, "Y_COORD": 683372.82520000997 }, "geometry": { "type": "Point", "coordinates": [ -122.28868833699994, 47.193423739000082 ] } },
{ "type": "Feature", "properties": { "OBJECTID": 253, "NAME": "Stewart Middle School", "ADDRESS": "5010 PACIFIC AVE", "CITY": "TACOMA", "ZIP": "98408", "DISTRICT": "TACOMA", "DIST_NO": "010", "TYPE": "MID", "PHONE": "(253) 571-2200", "WEBSITE": "https://stewart.tacomaschools.org/", "PRS_ID": null, "GRADE": "6-8", "X_COORD": 1159461.9247000101, "Y_COORD": 690601.6821 }, "geometry": { "type": "Point", "coordinates": [ -122.435336524999968, 47.210888903000068 ] } },
{ "type": "Feature", "properties": { "OBJECTID": 254, "NAME": "Stone Education Center", "ADDRESS": "6242 COLORADO AVE", "CITY": "JBLM", "ZIP": "98433", "DISTRICT": "NOT APPLICABLE", "DIST_NO": " ", "TYPE": "COLLEGE", "PHONE": "(253) 967-7174", "WEBSITE": "https://home.army.mil/lewis-mcchord/index.php/my-Joint-Base-Lewis-Mcchord/all-services/continuing-ed", "PRS_ID": null, "GRADE": "Higher Education", "X_COORD": 1123482.8536, "Y_COORD": 649318.89040001004 }, "geometry": { "type": "Point", "coordinates": [ -122.575679260999948, 47.095230179000055 ] } },
{ "type": "Feature", "properties": { "OBJECTID": 255, "NAME": "Sumner High School", "ADDRESS": "1707 MAIN ST", "CITY": "SUMNER", "ZIP": "98390", "DISTRICT": "SUMNER", "DIST_NO": "320", "TYPE": "HIGH", "PHONE": "(253) 891-5500", "WEBSITE": "https://www.sumnersd.org/shs", "PRS_ID": null, "GRADE": "9-12", "X_COORD": 1210071.9987999899, "Y_COORD": 687046.4743 }, "geometry": { "type": "Point", "coordinates": [ -122.231439542999965, 47.204369157000031 ] } },
{ "type": "Feature", "properties": { "OBJECTID": 256, "NAME": "Sumner Middle School", "ADDRESS": "1508 WILLOW ST", "CITY": "SUMNER", "ZIP": "98390", "DISTRICT": "SUMNER", "DIST_NO": "320", "TYPE": "MID", "PHONE": "(253) 891-5000", "WEBSITE": "https://www.sumnersd.org/sms", "PRS_ID": null, "GRADE": "6-8", "X_COORD": 1208937.3723, "Y_COORD": 683283.0721 }, "geometry": { "type": "Point", "coordinates": [ -122.235669968999957, 47.193985118000057 ] } },
{ "type": "Feature", "properties": { "OBJECTID": 257, "NAME": "Sunrise Elementary School", "ADDRESS": "2323 39TH AVE SE", "CITY": "PUYALLUP", "ZIP": "98374", "DISTRICT": "PUYALLUP", "DIST_NO": "003", "TYPE": "ELEM", "PHONE": "(253) 841-8744", "WEBSITE": "https://sun.puyallup.k12.wa.us/", "PRS_ID": null, "GRADE": "K-6", "X_COORD": 1201873.8601, "Y_COORD": 669387.8874 }, "geometry": { "type": "Point", "coordinates": [ -122.262825293999981, 47.155468101000054 ] } },
{ "type": "Feature", "properties": { "OBJECTID": 258, "NAME": "Sunset Primary School", "ADDRESS": "4523 97TH AVE W", "CITY": "UNIVERSITY PLACE", "ZIP": "98466", "DISTRICT": "UNIVERSITY PLACE", "DIST_NO": "083", "TYPE": "PRIM", "PHONE": "(253) 566-5640", "WEBSITE": "https://sp.upsd83.org/", "PRS_ID": null, "GRADE": "K-2", "X_COORD": 1127526.3137000101, "Y_COORD": 692919.42820000998 }, "geometry": { "type": "Point", "coordinates": [ -122.564030912999954, 47.215021896000053 ] } },
{ "type": "Feature", "properties": { "OBJECTID": 259, "NAME": "Surprise Lake Middle School", "ADDRESS": "2001 MILTON WAY", "CITY": "MILTON", "ZIP": "98354", "DISTRICT": "FIFE", "DIST_NO": "417", "TYPE": "MID", "PHONE": "(253) 517-1300", "WEBSITE": "https://slms.fifeschools.com/", "PRS_ID": null, "GRADE": "6-8", "X_COORD": 1191308.2405000001, "Y_COORD": 703441.29080000997 }, "geometry": { "type": "Point", "coordinates": [ -122.308419435999951, 47.248152999000069 ] } },
{ "type": "Feature", "properties": { "OBJECTID": 260, "NAME": "Swift Water Elementary School", "ADDRESS": "10811 HARBOR HILL DR", "CITY": "GIG HARBOR", "ZIP": "98332", "DISTRICT": "PENINSULA", "DIST_NO": null, "TYPE": "ELEM", "PHONE": "(253) 530-4900", "WEBSITE": "https://swe.psd401.net/", "PRS_ID": null, "GRADE": "K-8", "X_COORD": 1120286.4155, "Y_COORD": 744392.48999998998 }, "geometry": { "type": "Point", "coordinates": [ -122.598663049999971, 47.355568793000032 ] } },
{ "type": "Feature", "properties": { "OBJECTID": 261, "NAME": "Tacoma Community College - Gig Harbor Campus", "ADDRESS": "3993 HUNT ST NW", "CITY": "GIG HARBOR", "ZIP": "98335", "DISTRICT": "NOT APPLICABLE", "DIST_NO": " ", "TYPE": "COLLEGE", "PHONE": "(253) 566-5000", "WEBSITE": "https://www.tacomacc.edu/about/", "PRS_ID": null, "GRADE": "Higher Education", "X_COORD": 1121791.4446, "Y_COORD": 730169.1798 }, "geometry": { "type": "Point", "coordinates": [ -122.591072218999955, 47.316697943000065 ] } },
{ "type": "Feature", "properties": { "OBJECTID": 262, "NAME": "Tacoma Community College - Tacoma Campus", "ADDRESS": "6501 S 19TH ST", "CITY": "TACOMA", "ZIP": "98466", "DISTRICT": "NOT APPLICABLE", "DIST_NO": " ", "TYPE": "COLLEGE", "PHONE": "(253) 566-5000", "WEBSITE": "https://www.tacomacc.edu/about/", "PRS_ID": null, "GRADE": "Higher Education", "X_COORD": 1138433.3381000001, "Y_COORD": 704121.84110000997 }, "geometry": { "type": "Point", "coordinates": [ -122.521312080999962, 47.246499362000066 ] } },
{ "type": "Feature", "properties": { "OBJECTID": 263, "NAME": "Tacoma School of the Arts - Broadway", "ADDRESS": "1117 BROADWAY", "CITY": "TACOMA", "ZIP": "98402", "DISTRICT": "TACOMA", "DIST_NO": "010", "TYPE": "HIGH", "PHONE": "(253) 571-7900", "WEBSITE": "https://sota.tacomaschools.org/", "PRS_ID": null, "GRADE": "9-12", "X_COORD": 1158783.62720001, "Y_COORD": 705800.9631000001 }, "geometry": { "type": "Point", "coordinates": [ -122.439568498999961, 47.25250221500005 ] } },
{ "type": "Feature", "properties": { "OBJECTID": 264, "NAME": "Tacoma School of the Arts - Main Office", "ADDRESS": "302 S 9TH ST", "CITY": "TACOMA", "ZIP": "98402", "DISTRICT": "TACOMA", "DIST_NO": "010", "TYPE": "HIGH", "PHONE": "(253) 571-7900", "WEBSITE": "https://sota.tacomaschools.org/", "PRS_ID": null, "GRADE": "9-12", "X_COORD": 1158465.0704000001, "Y_COORD": 706675.8812 }, "geometry": { "type": "Point", "coordinates": [ -122.440937513, 47.254878733000055 ] } },
{ "type": "Feature", "properties": { "OBJECTID": 265, "NAME": "Tacoma School of the Arts - Pacific Ave", "ADDRESS": "1950 PACIFIC AVE", "CITY": "TACOMA", "ZIP": "98402", "DISTRICT": "TACOMA", "DIST_NO": "010", "TYPE": "HIGH", "PHONE": "(253) 571-7900", "WEBSITE": "https://sota.tacomaschools.org/", "PRS_ID": null, "GRADE": "9-12", "X_COORD": 1159393.5397000001, "Y_COORD": 702417.6402 }, "geometry": { "type": "Point", "coordinates": [ -122.436778843999946, 47.243270169000027 ] } },
{ "type": "Feature", "properties": { "OBJECTID": 266, "NAME": "Tacoma School of the Arts - Ted Brown Extention", "ADDRESS": "1124 BROADWAY", "CITY": "TACOMA", "ZIP": "98402", "DISTRICT": "TACOMA", "DIST_NO": "010", "TYPE": "HIGH", "PHONE": "(253) 571-7900", "WEBSITE": "https://sota.tacomaschools.org/", "PRS_ID": null, "GRADE": "9-12", "X_COORD": 1158603.4049, "Y_COORD": 705713.3714 }, "geometry": { "type": "Point", "coordinates": [ -122.440285298, 47.252249990000053 ] } },
{ "type": "Feature", "properties": { "OBJECTID": 267, "NAME": "Tehaleh Heights Elementary School", "ADDRESS": "17520 BERKELEY PKWY E", "CITY": "BONNEY LAKE", "ZIP": "98391", "DISTRICT": "SUMNER", "DIST_NO": "320", "TYPE": "ELEM", "PHONE": "(253) 891-6530", "WEBSITE": "https://www.sumnersd.org/the", "PRS_ID": null, "GRADE": "K-6", "X_COORD": 1218002.7569, "Y_COORD": 658834.46780001 }, "geometry": { "type": "Point", "coordinates": [ -122.197099221999963, 47.127509839000027 ] } },
{ "type": "Feature", "properties": { "OBJECTID": 268, "NAME": "The Academies at Henderson Bay", "ADDRESS": "8402 SKANSIE AVE NW", "CITY": "GIG HARBOR", "ZIP": "98332", "DISTRICT": "PENINSULA", "DIST_NO": "401", "TYPE": "HIGH", "PHONE": "(253) 530-1700", "WEBSITE": "https://hbh.psd401.net/", "PRS_ID": null, "GRADE": "9-12", "X_COORD": 1119003.0378, "Y_COORD": 736171.6769 }, "geometry": { "type": "Point", "coordinates": [ -122.602954728999975, 47.332945242000051 ] } },
{ "type": "Feature", "properties": { "OBJECTID": 269, "NAME": "Thomas Middle School ", "ADDRESS": "11509 HOLDEN RD SW", "CITY": "LAKEWOOD", "ZIP": "98498", "DISTRICT": "CLOVER PARK", "DIST_NO": "400", "TYPE": "MID", "PHONE": "(253) 583-5440", "WEBSITE": "https://thomas.cloverpark.k12.wa.us/", "PRS_ID": null, "GRADE": "6-8", "X_COORD": 1126499.4074, "Y_COORD": 670488.8291 }, "geometry": { "type": "Point", "coordinates": [ -122.565798027999961, 47.153470691000052 ] } },
{ "type": "Feature", "properties": { "OBJECTID": 270, "NAME": "Thompson Elementary", "ADDRESS": "303 159TH ST E", "CITY": "TACOMA", "ZIP": "98445", "DISTRICT": "BETHEL", "DIST_NO": "403", "TYPE": "ELEM", "PHONE": "(253) 800-5800", "WEBSITE": "https://www.bethelsd.org/tes", "PRS_ID": null, "GRADE": "PRE-6", "X_COORD": 1160774.6614000101, "Y_COORD": 654918.7509 }, "geometry": { "type": "Point", "coordinates": [ -122.42654988299995, 47.113172697000039 ] } },
{ "type": "Feature", "properties": { "OBJECTID": 271, "NAME": "Tillicum Elementary School", "ADDRESS": "8514 MAPLE ST SW", "CITY": "LAKEWOOD", "ZIP": "98498", "DISTRICT": "CLOVER PARK", "DIST_NO": "400", "TYPE": "ELEM", "PHONE": "(253) 583-5370", "WEBSITE": "https://tillicum.cloverpark.k12.wa.us/", "PRS_ID": null, "GRADE": "K-6", "X_COORD": 1129240.517, "Y_COORD": 659864.2552 }, "geometry": { "type": "Point", "coordinates": [ -122.553672852999966, 47.124546709000072 ] } },
{ "type": "Feature", "properties": { "OBJECTID": 272, "NAME": "Trinity Lutheran School", "ADDRESS": "12115 PARK AVE S", "CITY": "TACOMA", "ZIP": "98444", "DISTRICT": "NOT APPLICABLE", "DIST_NO": " ", "TYPE": "PRIVATE", "PHONE": "(253) 537-0201", "WEBSITE": "http://trinitylutheranparkland.org/", "PRS_ID": null, "GRADE": "K-6", "X_COORD": 1158134.3142, "Y_COORD": 667416.0407 }, "geometry": { "type": "Point", "coordinates": [ -122.438384292999956, 47.147249878000025 ] } },
{ "type": "Feature", "properties": { "OBJECTID": 273, "NAME": "Truman Middle School", "ADDRESS": "5801 N 35TH ST", "CITY": "TACOMA", "ZIP": "98407", "DISTRICT": "TACOMA", "DIST_NO": "010", "TYPE": "MID", "PHONE": "(253) 571-5600", "WEBSITE": "https://truman.tacomaschools.org/", "PRS_ID": null, "GRADE": "6-8", "X_COORD": 1140715.906, "Y_COORD": 716557.5739 }, "geometry": { "type": "Point", "coordinates": [ -122.513402889999952, 47.280742632000056 ] } },
{ "type": "Feature", "properties": { "OBJECTID": 274, "NAME": "Tyee Park Elementary School", "ADDRESS": "11920 SEMINOLE RD SW", "CITY": "LAKEWOOD", "ZIP": "98499", "DISTRICT": "CLOVER PARK", "DIST_NO": "400", "TYPE": "ELEM", "PHONE": "(253) 583-5380", "WEBSITE": "https://tyeepark.cloverpark.k12.wa.us/", "PRS_ID": null, "GRADE": "K-6", "X_COORD": 1140760.2022, "Y_COORD": 668424.7148 }, "geometry": { "type": "Point", "coordinates": [ -122.508287694999979, 47.148822934000066 ] } },
{ "type": "Feature", "properties": { "OBJECTID": 275, "NAME": "University Of Puget Sound", "ADDRESS": "1500 N WARNER ST", "CITY": "TACOMA", "ZIP": "98416", "DISTRICT": "NOT APPLICABLE", "DIST_NO": " ", "TYPE": "UNIVERSITY", "PHONE": "(253) 879-3100", "WEBSITE": "https://www.pugetsound.edu/", "PRS_ID": null, "GRADE": "Higher Education", "X_COORD": 1148566.373, "Y_COORD": 709469.9368 }, "geometry": { "type": "Point", "coordinates": [ -122.481067962999987, 47.261862050000047 ] } },
{ "type": "Feature", "properties": { "OBJECTID": 276, "NAME": "University of Washington - Tacoma ( UWT )", "ADDRESS": "1900 COMMERCE ST", "CITY": "TACOMA", "ZIP": "98402", "DISTRICT": "NOT APPLICABLE", "DIST_NO": "", "TYPE": "UNIVERSITY", "PHONE": "(253) 692-4400", "WEBSITE": "http://www.tacoma.uw.edu/", "PRS_ID": null, "GRADE": "Higher Education", "X_COORD": 1159036.5583, "Y_COORD": 703074.0025 }, "geometry": { "type": "Point", "coordinates": [ -122.438280535, 47.24504511400005 ] } },
{ "type": "Feature", "properties": { "OBJECTID": 277, "NAME": "University Place Primary School", "ADDRESS": "2708 GRANDVIEW DR W", "CITY": "UNIVERSITY PLACE", "ZIP": "98466", "DISTRICT": "UNIVERSITY PLACE", "DIST_NO": "083", "TYPE": "PRIM", "PHONE": "(253) 566-5620", "WEBSITE": "https://upp.upsd83.org/", "PRS_ID": null, "GRADE": "K-2", "X_COORD": 1130777.86839999, "Y_COORD": 699900.42110001005 }, "geometry": { "type": "Point", "coordinates": [ -122.551682146999951, 47.23438763300004 ] } },
{ "type": "Feature", "properties": { "OBJECTID": 278, "NAME": "Vaughn Elementary School", "ADDRESS": "17521 HALL RD NW", "CITY": "VAUGHN", "ZIP": "98394", "DISTRICT": "PENINSULA", "DIST_NO": "401", "TYPE": "ELEM", "PHONE": "(253) 530-4700", "WEBSITE": "https://ves.psd401.net/", "PRS_ID": null, "GRADE": "K-6", "X_COORD": 1077464.9628000001, "Y_COORD": 741481.2994 }, "geometry": { "type": "Point", "coordinates": [ -122.771012503999941, 47.344339251000065 ] } },
{ "type": "Feature", "properties": { "OBJECTID": 279, "NAME": "Victor Falls Elementary School", "ADDRESS": "11401 188TH AVE CT E", "CITY": "BONNEY LAKE", "ZIP": "98391", "DISTRICT": "SUMNER", "DIST_NO": "320", "TYPE": "ELEM", "PHONE": "(253) 891-4700", "WEBSITE": "https://www.sumnersd.org/vfe", "PRS_ID": null, "GRADE": "K-6", "X_COORD": 1222749.0724, "Y_COORD": 668383.23199998995 }, "geometry": { "type": "Point", "coordinates": [ -122.178852531999951, 47.153962816000046 ] } },
{ "type": "Feature", "properties": { "OBJECTID": 280, "NAME": "Visitation Catholic STEM Academy", "ADDRESS": "3306 S 58TH ST", "CITY": "TACOMA", "ZIP": "98409", "DISTRICT": "NOT APPLICABLE", "DIST_NO": "", "TYPE": "PRIVATE", "PHONE": "(253) 474-6424", "WEBSITE": "http://visitationstemacademy.org/", "PRS_ID": null, "GRADE": "K-6", "X_COORD": 1148271.1337, "Y_COORD": 688304.2727 }, "geometry": { "type": "Point", "coordinates": [ -122.480116944999963, 47.203830578000066 ] } },
{ "type": "Feature", "properties": { "OBJECTID": 281, "NAME": "Voyager Elementary School", "ADDRESS": "5615 KOPACHUCK DR NW", "CITY": "GIG HARBOR", "ZIP": "98335", "DISTRICT": "PENINSULA", "DIST_NO": "401", "TYPE": "ELEM", "PHONE": "(253) 530-4800", "WEBSITE": "https://vge.psd401.net/", "PRS_ID": null, "GRADE": "K-6", "X_COORD": 1100176.1384000001, "Y_COORD": 728200.5205 }, "geometry": { "type": "Point", "coordinates": [ -122.677961577999952, 47.309699181000042 ] } },
{ "type": "Feature", "properties": { "OBJECTID": 282, "NAME": "Wainwright Intermediate School", "ADDRESS": "130 ALAMEDA AVE", "CITY": "FIRCREST", "ZIP": "98466", "DISTRICT": "TACOMA", "DIST_NO": "010", "TYPE": "MID", "PHONE": "(253) 571-2100", "WEBSITE": "https://wainwright.tacomaschools.org/", "PRS_ID": null, "GRADE": "6-8", "X_COORD": 1139347.19239999, "Y_COORD": 702168.7886 }, "geometry": { "type": "Point", "coordinates": [ -122.517432812999971, 47.241210634000026 ] } },
{ "type": "Feature", "properties": { "OBJECTID": 283, "NAME": "Walker High School", "ADDRESS": "5715 MILWAUKEE AVE E", "CITY": "PUYALLUP", "ZIP": "98372", "DISTRICT": "PUYALLUP", "DIST_NO": "003", "TYPE": "HIGH", "PHONE": "(253) 841-8781", "WEBSITE": "https://whs.puyallup.k12.wa.us/", "PRS_ID": null, "GRADE": "9-12", "X_COORD": 1197437.5414, "Y_COORD": 687658.3345 }, "geometry": { "type": "Point", "coordinates": [ -122.282311310999944, 47.205274786000075 ] } },
{ "type": "Feature", "properties": { "OBJECTID": 284, "NAME": "Waller Road Elementary School", "ADDRESS": "6312 WALLER RD E", "CITY": "TACOMA", "ZIP": "98443", "DISTRICT": "PUYALLUP", "DIST_NO": "003", "TYPE": "ELEM", "PHONE": "(253) 841-8745", "WEBSITE": "https://wal.puyallup.k12.wa.us/", "PRS_ID": null, "GRADE": "K-6", "X_COORD": 1170496.1447000101, "Y_COORD": 686232.34810000996 }, "geometry": { "type": "Point", "coordinates": [ -122.390531284999952, 47.199646613000027 ] } },
{ "type": "Feature", "properties": { "OBJECTID": 285, "NAME": "Washington Elementary School", "ADDRESS": "2615 N ADAMS ST", "CITY": "TACOMA", "ZIP": "98407", "DISTRICT": "TACOMA", "DIST_NO": "010", "TYPE": "ELEM", "PHONE": "(253) 571-5700", "WEBSITE": "https://washington.tacomaschools.org/", "PRS_ID": null, "GRADE": "K-5", "X_COORD": 1147317.1533, "Y_COORD": 713032.86049999006 }, "geometry": { "type": "Point", "coordinates": [ -122.486458764999952, 47.271541099000046 ] } },
{ "type": "Feature", "properties": { "OBJECTID": 286, "NAME": "Washington High School", "ADDRESS": "12420 AINSWORTH AVE S", "CITY": "TACOMA", "ZIP": "98444", "DISTRICT": "FRANKLIN PIERCE", "DIST_NO": "402", "TYPE": "HIGH", "PHONE": "(253) 298-4700", "WEBSITE": "http://washington.fpschools.org/", "PRS_ID": null, "GRADE": "9-12", "X_COORD": 1153835.9744, "Y_COORD": 666221.14910001005 }, "geometry": { "type": "Point", "coordinates": [ -122.455534049, 47.143683897000074 ] } },
{ "type": "Feature", "properties": { "OBJECTID": 287, "NAME": "Weyerhaeuser Elementary School", "ADDRESS": "6105 365TH ST E", "CITY": "EATONVILLE", "ZIP": "98328", "DISTRICT": "EATONVILLE", "DIST_NO": "404", "TYPE": "ELEM", "PHONE": "(360) 879-1650", "WEBSITE": "https://www.eatonville.wednet.edu/wes", "PRS_ID": null, "GRADE": "K-6", "X_COORD": 1178273.7307, "Y_COORD": 585455.6919 }, "geometry": { "type": "Point", "coordinates": [ -122.349746903999971, 46.923916505000079 ] } },
{ "type": "Feature", "properties": { "OBJECTID": 288, "NAME": "White River Early Learning Center", "ADDRESS": "27515 120TH ST E", "CITY": "BUCKLEY", "ZIP": "98321", "DISTRICT": "WHITE RIVER", "DIST_NO": "416", "TYPE": "HIGH", "PHONE": "(360) 829-5830", "WEBSITE": "https://elc.whiteriver.wednet.edu/", "PRS_ID": null, "GRADE": "Intermediate", "X_COORD": 1251510.7073000099, "Y_COORD": 666556.1955 }, "geometry": { "type": "Point", "coordinates": [ -122.063128417999962, 47.150575059000062 ] } },
{ "type": "Feature", "properties": { "OBJECTID": 289, "NAME": "White River High School", "ADDRESS": "26928 120TH ST E", "CITY": "BUCKLEY", "ZIP": "98321", "DISTRICT": "WHITE RIVER", "DIST_NO": "416", "TYPE": "HIGH", "PHONE": "(360) 829-3352", "WEBSITE": "http://wrhs.whiteriver.wednet.edu/", "PRS_ID": null, "GRADE": "9-12", "X_COORD": 1248916.45640001, "Y_COORD": 664714.3457 }, "geometry": { "type": "Point", "coordinates": [ -122.073405074, 47.145384732000025 ] } },
{ "type": "Feature", "properties": { "OBJECTID": 290, "NAME": "Whitman Elementary School", "ADDRESS": "1120 S 39TH ST", "CITY": "TACOMA", "ZIP": "98418", "DISTRICT": "TACOMA", "DIST_NO": "010", "TYPE": "ELEM", "PHONE": "(253) 571-7272", "WEBSITE": "https://whitman.tacomaschools.org/", "PRS_ID": null, "GRADE": "K-5", "X_COORD": 1156093.5548, "Y_COORD": 694510.5464 }, "geometry": { "type": "Point", "coordinates": [ -122.449273800999947, 47.221375183000077 ] } },
{ "type": "Feature", "properties": { "OBJECTID": 291, "NAME": "Whittier Elementary", "ADDRESS": "777 ELMTREE LN", "CITY": "FIRCREST", "ZIP": "98466", "DISTRICT": "TACOMA", "DIST_NO": "010", "TYPE": "ELEM", "PHONE": "(253) 571-7500", "WEBSITE": "https://whittier.tacomaschools.org/", "PRS_ID": null, "GRADE": "K-5", "X_COORD": 1139986.2639, "Y_COORD": 697626.23100001004 }, "geometry": { "type": "Point", "coordinates": [ -122.514393884999947, 47.228805255000054 ] } },
{ "type": "Feature", "properties": { "OBJECTID": 292, "NAME": "Wildwood Elementary School", "ADDRESS": "1601 26TH AVE SE", "CITY": "PUYALLUP", "ZIP": "98374", "DISTRICT": "PUYALLUP", "DIST_NO": "003", "TYPE": "ELEM", "PHONE": "(253) 841-8746", "WEBSITE": "https://wil.puyallup.k12.wa.us/", "PRS_ID": null, "GRADE": "K-6", "X_COORD": 1199331.2855, "Y_COORD": 673643.067 }, "geometry": { "type": "Point", "coordinates": [ -122.273426842, 47.166975554000032 ] } },
{ "type": "Feature", "properties": { "OBJECTID": 293, "NAME": "Wilkeson Elementary School", "ADDRESS": "640 RAILROAD AVE", "CITY": "WILKESON", "ZIP": "98396", "DISTRICT": "WHITE RIVER", "DIST_NO": "416", "TYPE": "ELEM", "PHONE": "(360) 829-3357", "WEBSITE": "http://www.wilkeson.whiteriver.wednet.edu/", "PRS_ID": null, "GRADE": "K-6", "X_COORD": 1256116.5489999901, "Y_COORD": 648465.45829999004 }, "geometry": { "type": "Point", "coordinates": [ -122.04319852499998, 47.10123244600004 ] } },
{ "type": "Feature", "properties": { "OBJECTID": 294, "NAME": "Willie Stewart Academy", "ADDRESS": "1818 TACOMA AVE S", "CITY": "TACOMA", "ZIP": "98402", "DISTRICT": "TACOMA", "DIST_NO": "010", "TYPE": "HIGH", "PHONE": "(253) 571-3270", "WEBSITE": "https://wsa.tacomaschools.org/", "PRS_ID": null, "GRADE": "9-12", "X_COORD": 1157840.1, "Y_COORD": 703012.11849998997 }, "geometry": { "type": "Point", "coordinates": [ -122.44309, 47.244794800000079 ] } },
{ "type": "Feature", "properties": { "OBJECTID": 295, "NAME": "Woodland Elementary School", "ADDRESS": "7707 112TH ST E", "CITY": "PUYALLUP", "ZIP": "98373", "DISTRICT": "PUYALLUP", "DIST_NO": "003", "TYPE": "ELEM", "PHONE": "(253) 841-8747", "WEBSITE": "https://woo.puyallup.k12.wa.us/", "PRS_ID": null, "GRADE": "K-6", "X_COORD": 1186117.2992, "Y_COORD": 669826.1522 }, "geometry": { "type": "Point", "coordinates": [ -122.326181014999975, 47.15568664500006 ] } },
{ "type": "Feature", "properties": { "OBJECTID": 296, "NAME": "Zeiger Elementary School", "ADDRESS": "13008 94TH AVE E", "CITY": "PUYALLUP", "ZIP": "98373", "DISTRICT": "PUYALLUP", "DIST_NO": "003", "TYPE": "ELEM", "PHONE": "(253) 841-8663", "WEBSITE": "https://zei.puyallup.k12.wa.us/", "PRS_ID": null, "GRADE": "K-6", "X_COORD": 1190756.90979999, "Y_COORD": 663240.773 }, "geometry": { "type": "Point", "coordinates": [ -122.306931070999951, 47.137928818000034 ] } }
]
}
